<?xml version="1.0" encoding="utf-8" ?>
<kml xmlns="http://www.opengis.net/kml/2.2">
<Document>
  <Placemark>
	<name>Reiz Continental Hotel</name>
	<ExtendedData><SchemaData schemaUrl="#SELECT">
		<SimpleData name="osm_id">31203225</SimpleData>
		<SimpleData name="tourism">hotel</SimpleData>
	</SchemaData></ExtendedData>
      <Point><coordinates>7.485347,9.049603</coordinates></Point>
  </Placemark>
  <Placemark>
	<ExtendedData><SchemaData schemaUrl="#SELECT">
		<SimpleData name="osm_id">31384671</SimpleData>
		<SimpleData name="amenity">parking</SimpleData>
	</SchemaData></ExtendedData>
      <Point><coordinates>7.4823629,9.0522154</coordinates></Point>
  </Placemark>
  <Placemark>
	<name>Ecumenical Centre</name>
	<ExtendedData><SchemaData schemaUrl="#SELECT">
		<SimpleData name="osm_id">31384738</SimpleData>
		<SimpleData name="amenity">place_of_worship</SimpleData>
	</SchemaData></ExtendedData>
      <Point><coordinates>7.4945049,9.0519438</coordinates></Point>
  </Placemark>
  <Placemark>
	<name>Oando</name>
	<ExtendedData><SchemaData schemaUrl="#SELECT">
		<SimpleData name="osm_id">31445280</SimpleData>
		<SimpleData name="amenity">fuel</SimpleData>
	</SchemaData></ExtendedData>
      <Point><coordinates>7.3470259,8.9642215</coordinates></Point>
  </Placemark>
  <Placemark>
	<name>Hansel Oil</name>
	<ExtendedData><SchemaData schemaUrl="#SELECT">
		<SimpleData name="osm_id">31445283</SimpleData>
		<SimpleData name="amenity">fuel</SimpleData>
	</SchemaData></ExtendedData>
      <Point><coordinates>7.3541829,8.9685717</coordinates></Point>
  </Placemark>
  <Placemark>
	<name>Millipat Plaza</name>
	<ExtendedData><SchemaData schemaUrl="#SELECT">
		<SimpleData name="osm_id">31445570</SimpleData>
		<SimpleData name="amenity">indoor_shopping_centre</SimpleData>
	</SchemaData></ExtendedData>
      <Point><coordinates>7.4430199,9.0327607</coordinates></Point>
  </Placemark>
  <Placemark>
	<name>Children's Zoo</name>
	<ExtendedData><SchemaData schemaUrl="#SELECT">
		<SimpleData name="osm_id">31448400</SimpleData>
		<SimpleData name="tourism">zoo</SimpleData>
	</SchemaData></ExtendedData>
      <Point><coordinates>7.5185034,9.082</coordinates></Point>
  </Placemark>
  <Placemark>
	<ExtendedData><SchemaData schemaUrl="#SELECT">
		<SimpleData name="osm_id">31450343</SimpleData>
		<SimpleData name="amenity">parking</SimpleData>
	</SchemaData></ExtendedData>
      <Point><coordinates>7.5360965,9.0469095</coordinates></Point>
  </Placemark>
  <Placemark>
	<name>Fish</name>
	<ExtendedData><SchemaData schemaUrl="#SELECT">
		<SimpleData name="osm_id">31450344</SimpleData>
		<SimpleData name="amenity">restaurant</SimpleData>
	</SchemaData></ExtendedData>
      <Point><coordinates>7.5362436,9.0472252</coordinates></Point>
  </Placemark>
  <Placemark>
	<ExtendedData><SchemaData schemaUrl="#SELECT">
		<SimpleData name="osm_id">31450345</SimpleData>
		<SimpleData name="amenity">pub</SimpleData>
	</SchemaData></ExtendedData>
      <Point><coordinates>7.5361791,9.0472324</coordinates></Point>
  </Placemark>
  <Placemark>
	<name>Texaco</name>
	<ExtendedData><SchemaData schemaUrl="#SELECT">
		<SimpleData name="osm_id">31452071</SimpleData>
		<SimpleData name="amenity">fuel</SimpleData>
	</SchemaData></ExtendedData>
      <Point><coordinates>7.5275284,9.0511029</coordinates></Point>
  </Placemark>
  <Placemark>
	<name>Conoil Petrol Station</name>
	<ExtendedData><SchemaData schemaUrl="#SELECT">
		<SimpleData name="osm_id">55395550</SimpleData>
		<SimpleData name="amenity">fuel</SimpleData>
	</SchemaData></ExtendedData>
      <Point><coordinates>3.343183,6.5925166</coordinates></Point>
  </Placemark>
  <Placemark>
	<name>So Fine Petrol Station</name>
	<ExtendedData><SchemaData schemaUrl="#SELECT">
		<SimpleData name="osm_id">93683512</SimpleData>
		<SimpleData name="amenity">fuel</SimpleData>
	</SchemaData></ExtendedData>
      <Point><coordinates>3.3065629,6.6476848</coordinates></Point>
  </Placemark>
  <Placemark>
	<name>Mobil Petrol Station</name>
	<ExtendedData><SchemaData schemaUrl="#SELECT">
		<SimpleData name="osm_id">93683519</SimpleData>
		<SimpleData name="amenity">fuel</SimpleData>
	</SchemaData></ExtendedData>
      <Point><coordinates>3.3034303,6.6504026</coordinates></Point>
  </Placemark>
  <Placemark>
	<name>xx</name>
	<ExtendedData><SchemaData schemaUrl="#SELECT">
		<SimpleData name="osm_id">93683528</SimpleData>
		<SimpleData name="amenity">fuel</SimpleData>
	</SchemaData></ExtendedData>
      <Point><coordinates>3.30696,6.6486974</coordinates></Point>
  </Placemark>
  <Placemark>
	<name>Lagos State University</name>
	<ExtendedData><SchemaData schemaUrl="#SELECT">
		<SimpleData name="osm_id">93683543</SimpleData>
		<SimpleData name="amenity">university</SimpleData>
	</SchemaData></ExtendedData>
      <Point><coordinates>3.2017248,6.4636522</coordinates></Point>
  </Placemark>
  <Placemark>
	<name>A/P Filling Station</name>
	<ExtendedData><SchemaData schemaUrl="#SELECT">
		<SimpleData name="osm_id">168652859</SimpleData>
		<SimpleData name="amenity">fuel</SimpleData>
	</SchemaData></ExtendedData>
      <Point><coordinates>3.8547758,7.3779395</coordinates></Point>
  </Placemark>
  <Placemark>
	<name>La Chinan</name>
	<ExtendedData><SchemaData schemaUrl="#SELECT">
		<SimpleData name="osm_id">268971761</SimpleData>
		<SimpleData name="amenity">restaurant</SimpleData>
	</SchemaData></ExtendedData>
      <Point><coordinates>7.0397722,4.8227373</coordinates></Point>
  </Placemark>
  <Placemark>
	<name>75 Falolu Road</name>
	<ExtendedData><SchemaData schemaUrl="#SELECT">
		<SimpleData name="osm_id">316140345</SimpleData>
		<SimpleData name="amenity">place_of_worship</SimpleData>
	</SchemaData></ExtendedData>
      <Point><coordinates>3.3543246,6.5079623</coordinates></Point>
  </Placemark>
  <Placemark>
	<name>BSES Transmitter tower</name>
	<ExtendedData><SchemaData schemaUrl="#SELECT">
		<SimpleData name="osm_id">317738760</SimpleData>
		<SimpleData name="man_made">tower</SimpleData>
	</SchemaData></ExtendedData>
      <Point><coordinates>5.2467521,7.6751495</coordinates></Point>
  </Placemark>
  <Placemark>
	<name>Ahmadu Bello University Senate building</name>
	<ExtendedData><SchemaData schemaUrl="#SELECT">
		<SimpleData name="osm_id">317739747</SimpleData>
		<SimpleData name="amenity">college</SimpleData>
	</SchemaData></ExtendedData>
      <Point><coordinates>7.6546841,11.1507324</coordinates></Point>
  </Placemark>
  <Placemark>
	<name>Radio House Federal Radio Corporation of Nigeria</name>
	<ExtendedData><SchemaData schemaUrl="#SELECT">
		<SimpleData name="osm_id">317743550</SimpleData>
		<SimpleData name="amenity">public_building</SimpleData>
	</SchemaData></ExtendedData>
      <Point><coordinates>7.4914672,9.0416339</coordinates></Point>
  </Placemark>
  <Placemark>
	<name>Rock View Hotel Abuja</name>
	<ExtendedData><SchemaData schemaUrl="#SELECT">
		<SimpleData name="osm_id">317743981</SimpleData>
		<SimpleData name="tourism">hotel</SimpleData>
	</SchemaData></ExtendedData>
      <Point><coordinates>7.4874802,9.0751372</coordinates></Point>
  </Placemark>
  <Placemark>
	<name>British Council Abuja</name>
	<ExtendedData><SchemaData schemaUrl="#SELECT">
		<SimpleData name="osm_id">317744100</SimpleData>
		<SimpleData name="amenity">public_building</SimpleData>
	</SchemaData></ExtendedData>
      <Point><coordinates>7.4906568,9.0844608</coordinates></Point>
  </Placemark>
  <Placemark>
	<name>Dome Night Club Abuja</name>
	<ExtendedData><SchemaData schemaUrl="#SELECT">
		<SimpleData name="osm_id">317744101</SimpleData>
		<SimpleData name="amenity">nightclub</SimpleData>
	</SchemaData></ExtendedData>
      <Point><coordinates>7.4638065,9.0451858</coordinates></Point>
  </Placemark>
  <Placemark>
	<name>Yankari Nature reserve</name>
	<ExtendedData><SchemaData schemaUrl="#SELECT">
		<SimpleData name="osm_id">317757231</SimpleData>
		<SimpleData name="tourism">hotel</SimpleData>
	</SchemaData></ExtendedData>
      <Point><coordinates>10.5104585,9.7534701</coordinates></Point>
  </Placemark>
  <Placemark>
	<name>Zaria Central Post Office</name>
	<ExtendedData><SchemaData schemaUrl="#SELECT">
		<SimpleData name="osm_id">317901476</SimpleData>
		<SimpleData name="amenity">post_office</SimpleData>
	</SchemaData></ExtendedData>
      <Point><coordinates>7.720417,11.1065353</coordinates></Point>
  </Placemark>
  <Placemark>
	<name>BAT Club Zaria</name>
	<ExtendedData><SchemaData schemaUrl="#SELECT">
		<SimpleData name="osm_id">317901477</SimpleData>
		<SimpleData name="amenity">pub</SimpleData>
	</SchemaData></ExtendedData>
      <Point><coordinates>7.7204357,11.109886</coordinates></Point>
  </Placemark>
  <Placemark>
	<name>British Council Kano</name>
	<ExtendedData><SchemaData schemaUrl="#SELECT">
		<SimpleData name="osm_id">317908461</SimpleData>
		<SimpleData name="amenity">arts_centre</SimpleData>
	</SchemaData></ExtendedData>
      <Point><coordinates>8.5255678,11.9901724</coordinates></Point>
  </Placemark>
  <Placemark>
	<ExtendedData><SchemaData schemaUrl="#SELECT">
		<SimpleData name="osm_id">317908623</SimpleData>
		<SimpleData name="man_made">tower</SimpleData>
	</SchemaData></ExtendedData>
      <Point><coordinates>7.5674908,10.8211643</coordinates></Point>
  </Placemark>
  <Placemark>
	<name>National Eye Centre Nigeria</name>
	<ExtendedData><SchemaData schemaUrl="#SELECT">
		<SimpleData name="osm_id">317909388</SimpleData>
		<SimpleData name="amenity">hospital</SimpleData>
	</SchemaData></ExtendedData>
      <Point><coordinates>7.4053223,10.573804</coordinates></Point>
  </Placemark>
  <Placemark>
	<ExtendedData><SchemaData schemaUrl="#SELECT">
		<SimpleData name="osm_id">359579017</SimpleData>
		<SimpleData name="amenity">parking</SimpleData>
	</SchemaData></ExtendedData>
      <Point><coordinates>8.5057384,12.0152295</coordinates></Point>
  </Placemark>
  <Placemark>
	<name>Bayero University</name>
	<ExtendedData><SchemaData schemaUrl="#SELECT">
		<SimpleData name="osm_id">359579022</SimpleData>
		<SimpleData name="amenity">university</SimpleData>
	</SchemaData></ExtendedData>
      <Point><coordinates>8.5065423,12.0160591</coordinates></Point>
  </Placemark>
  <Placemark>
	<name>Gambo Sawaba Suites</name>
	<ExtendedData><SchemaData schemaUrl="#SELECT">
		<SimpleData name="osm_id">359579030</SimpleData>
		<SimpleData name="tourism">hotel</SimpleData>
	</SchemaData></ExtendedData>
      <Point><coordinates>8.5065423,12.0147164</coordinates></Point>
  </Placemark>
  <Placemark>
	<ExtendedData><SchemaData schemaUrl="#SELECT">
		<SimpleData name="osm_id">359579060</SimpleData>
		<SimpleData name="amenity">fuel</SimpleData>
	</SchemaData></ExtendedData>
      <Point><coordinates>8.4730054,11.9833346</coordinates></Point>
  </Placemark>
  <Placemark>
	<name>Bayero University Kano (new campus)</name>
	<ExtendedData><SchemaData schemaUrl="#SELECT">
		<SimpleData name="osm_id">359579065</SimpleData>
		<SimpleData name="amenity">university</SimpleData>
	</SchemaData></ExtendedData>
      <Point><coordinates>8.4255078,11.9692949</coordinates></Point>
  </Placemark>
  <Placemark>
	<ExtendedData><SchemaData schemaUrl="#SELECT">
		<SimpleData name="osm_id">359584478</SimpleData>
		<SimpleData name="amenity">courthouse</SimpleData>
	</SchemaData></ExtendedData>
      <Point><coordinates>8.49052,11.9988363</coordinates></Point>
  </Placemark>
  <Placemark>
	<ExtendedData><SchemaData schemaUrl="#SELECT">
		<SimpleData name="osm_id">359584486</SimpleData>
		<SimpleData name="amenity">place_of_worship</SimpleData>
	</SchemaData></ExtendedData>
      <Point><coordinates>8.4923844,12.0041043</coordinates></Point>
  </Placemark>
  <Placemark>
	<name>National Museum Gidan Makama Kano</name>
	<ExtendedData><SchemaData schemaUrl="#SELECT">
		<SimpleData name="osm_id">359594979</SimpleData>
		<SimpleData name="tourism">museum</SimpleData>
		<SimpleData name="opening_hours">8:00AM - 5:00PM</SimpleData>
		<SimpleData name="addr:street">Emir Palace Road</SimpleData>
		<SimpleData name="addr:city">Kan Karofi</SimpleData>
	</SchemaData></ExtendedData>
      <Point><coordinates>8.5210264,11.9883725</coordinates></Point>
  </Placemark>
  <Placemark>
	<name>Emir's Palace</name>
	<ExtendedData><SchemaData schemaUrl="#SELECT">
		<SimpleData name="osm_id">359594983</SimpleData>
		<SimpleData name="tourism">attraction</SimpleData>
	</SchemaData></ExtendedData>
      <Point><coordinates>8.5229571,11.9833845</coordinates></Point>
  </Placemark>
  <Placemark>
	<name>Chinese</name>
	<ExtendedData><SchemaData schemaUrl="#SELECT">
		<SimpleData name="osm_id">359595074</SimpleData>
		<SimpleData name="amenity">restaurant</SimpleData>
	</SchemaData></ExtendedData>
      <Point><coordinates>8.5481942,11.9986821</coordinates></Point>
  </Placemark>
  <Placemark>
	<ExtendedData><SchemaData schemaUrl="#SELECT">
		<SimpleData name="osm_id">444674143</SimpleData>
		<SimpleData name="amenity">pub</SimpleData>
	</SchemaData></ExtendedData>
      <Point><coordinates>5.2044767,5.618426</coordinates></Point>
  </Placemark>
  <Placemark>
	<name>Sultan Bello Mosque</name>
	<ExtendedData><SchemaData schemaUrl="#SELECT">
		<SimpleData name="osm_id">462364812</SimpleData>
		<SimpleData name="amenity">place_of_worship</SimpleData>
	</SchemaData></ExtendedData>
      <Point><coordinates>7.4455125,10.5508119</coordinates></Point>
  </Placemark>
  <Placemark>
	<name>Kaduna State Radio FM Tower</name>
	<ExtendedData><SchemaData schemaUrl="#SELECT">
		<SimpleData name="osm_id">465633924</SimpleData>
		<SimpleData name="man_made">mast</SimpleData>
	</SchemaData></ExtendedData>
      <Point><coordinates>7.4494415,10.554989</coordinates></Point>
  </Placemark>
  <Placemark>
	<ExtendedData><SchemaData schemaUrl="#SELECT">
		<SimpleData name="osm_id">473455071</SimpleData>
		<SimpleData name="amenity">place_of_worship</SimpleData>
	</SchemaData></ExtendedData>
      <Point><coordinates>7.4563225,10.4466544</coordinates></Point>
  </Placemark>
  <Placemark>
	<ExtendedData><SchemaData schemaUrl="#SELECT">
		<SimpleData name="osm_id">473927658</SimpleData>
		<SimpleData name="man_made">water_tower</SimpleData>
	</SchemaData></ExtendedData>
      <Point><coordinates>7.4353582,10.5640658</coordinates></Point>
  </Placemark>
  <Placemark>
	<name>NITEL Dish Farm</name>
	<ExtendedData><SchemaData schemaUrl="#SELECT">
		<SimpleData name="osm_id">475138114</SimpleData>
		<SimpleData name="man_made">Nitel dish Farm</SimpleData>
	</SchemaData></ExtendedData>
      <Point><coordinates>7.6417917,10.4351739</coordinates></Point>
  </Placemark>
  <Placemark>
	<name>To BE CHECKED</name>
	<ExtendedData><SchemaData schemaUrl="#SELECT">
		<SimpleData name="osm_id">476753854</SimpleData>
		<SimpleData name="amenity">embassy</SimpleData>
	</SchemaData></ExtendedData>
      <Point><coordinates>7.4424636,10.5472174</coordinates></Point>
  </Placemark>
  <Placemark>
	<ExtendedData><SchemaData schemaUrl="#SELECT">
		<SimpleData name="osm_id">482142602</SimpleData>
		<SimpleData name="amenity">customs</SimpleData>
	</SchemaData></ExtendedData>
      <Point><coordinates>11.2391815,12.8574251</coordinates></Point>
  </Placemark>
  <Placemark>
	<name>Embassy of Cameroon</name>
	<ExtendedData><SchemaData schemaUrl="#SELECT">
		<SimpleData name="osm_id">482263205</SimpleData>
		<SimpleData name="amenity">embassy</SimpleData>
	</SchemaData></ExtendedData>
      <Point><coordinates>8.3374595,4.9674756</coordinates></Point>
  </Placemark>
  <Placemark>
	<name>Nigerian Television Transmitter</name>
	<ExtendedData><SchemaData schemaUrl="#SELECT">
		<SimpleData name="osm_id">489729126</SimpleData>
		<SimpleData name="man_made">tower</SimpleData>
	</SchemaData></ExtendedData>
      <Point><coordinates>7.472394,10.5379369</coordinates></Point>
  </Placemark>
  <Placemark>
	<name>Oza</name>
	<ExtendedData><SchemaData schemaUrl="#SELECT">
		<SimpleData name="osm_id">501247669</SimpleData>
		<SimpleData name="man_made">oilfield</SimpleData>
	</SchemaData></ExtendedData>
      <Point><coordinates>7.333333,4.916667</coordinates></Point>
  </Placemark>
  <Placemark>
	<name>Rumuecke</name>
	<ExtendedData><SchemaData schemaUrl="#SELECT">
		<SimpleData name="osm_id">501249782</SimpleData>
		<SimpleData name="man_made">gasfield</SimpleData>
	</SchemaData></ExtendedData>
      <Point><coordinates>6.75,4.983333</coordinates></Point>
  </Placemark>
  <Placemark>
	<name>St. Brendan’s Secondary School</name>
	<ExtendedData><SchemaData schemaUrl="#SELECT">
		<SimpleData name="osm_id">501253179</SimpleData>
		<SimpleData name="amenity">school</SimpleData>
	</SchemaData></ExtendedData>
      <Point><coordinates>8.3457775,5.9686675</coordinates></Point>
  </Placemark>
  <Placemark>
	<name>Afam Oil Field</name>
	<ExtendedData><SchemaData schemaUrl="#SELECT">
		<SimpleData name="osm_id">501254715</SimpleData>
		<SimpleData name="man_made">oilfield</SimpleData>
	</SchemaData></ExtendedData>
      <Point><coordinates>7.329171,4.815664</coordinates></Point>
  </Placemark>
  <Placemark>
	<name>Oroni</name>
	<ExtendedData><SchemaData schemaUrl="#SELECT">
		<SimpleData name="osm_id">501263415</SimpleData>
		<SimpleData name="man_made">oilfield</SimpleData>
	</SchemaData></ExtendedData>
      <Point><coordinates>6.166667,5.333333</coordinates></Point>
  </Placemark>
  <Placemark>
	<name>Dantanka</name>
	<ExtendedData><SchemaData schemaUrl="#SELECT">
		<SimpleData name="osm_id">501268979</SimpleData>
		<SimpleData name="tourism">palace</SimpleData>
	</SchemaData></ExtendedData>
      <Point><coordinates>4.2654365,11.9280555</coordinates></Point>
  </Placemark>
  <Placemark>
	<name>Akata</name>
	<ExtendedData><SchemaData schemaUrl="#SELECT">
		<SimpleData name="osm_id">501271653</SimpleData>
		<SimpleData name="man_made">gasfield</SimpleData>
	</SchemaData></ExtendedData>
      <Point><coordinates>7.75,4.666667</coordinates></Point>
  </Placemark>
  <Placemark>
	<name>Eriemu</name>
	<ExtendedData><SchemaData schemaUrl="#SELECT">
		<SimpleData name="osm_id">501272519</SimpleData>
		<SimpleData name="man_made">oilfield</SimpleData>
	</SchemaData></ExtendedData>
      <Point><coordinates>6.033333,5.583333</coordinates></Point>
  </Placemark>
  <Placemark>
	<name>Church Missionary Society School</name>
	<ExtendedData><SchemaData schemaUrl="#SELECT">
		<SimpleData name="osm_id">501275640</SimpleData>
		<SimpleData name="amenity">school</SimpleData>
	</SchemaData></ExtendedData>
      <Point><coordinates>8.351055,5.070615</coordinates></Point>
  </Placemark>
  <Placemark>
	<name>St Patrick’s College</name>
	<ExtendedData><SchemaData schemaUrl="#SELECT">
		<SimpleData name="osm_id">501275691</SimpleData>
		<SimpleData name="amenity">school</SimpleData>
	</SchemaData></ExtendedData>
      <Point><coordinates>8.341085,5.022766</coordinates></Point>
  </Placemark>
  <Placemark>
	<name>Oglewu Leprosy Clinic</name>
	<ExtendedData><SchemaData schemaUrl="#SELECT">
		<SimpleData name="osm_id">501276014</SimpleData>
		<SimpleData name="amenity">hospital</SimpleData>
	</SchemaData></ExtendedData>
      <Point><coordinates>8.0276,7.1493</coordinates></Point>
  </Placemark>
  <Placemark>
	<name>Bodo</name>
	<ExtendedData><SchemaData schemaUrl="#SELECT">
		<SimpleData name="osm_id">501278007</SimpleData>
		<SimpleData name="man_made">oilfield</SimpleData>
	</SchemaData></ExtendedData>
      <Point><coordinates>7.266667,4.616667</coordinates></Point>
  </Placemark>
  <Placemark>
	<name>Kulp Bible School</name>
	<ExtendedData><SchemaData schemaUrl="#SELECT">
		<SimpleData name="osm_id">501287824</SimpleData>
		<SimpleData name="amenity">school</SimpleData>
	</SchemaData></ExtendedData>
      <Point><coordinates>13.170123,10.3273135</coordinates></Point>
  </Placemark>
  <Placemark>
	<name>Akassa Lighthouse</name>
	<ExtendedData><SchemaData schemaUrl="#SELECT">
		<SimpleData name="osm_id">501291948</SimpleData>
		<SimpleData name="man_made">lighthouse</SimpleData>
	</SchemaData></ExtendedData>
      <Point><coordinates>6.0841695,4.278613</coordinates></Point>
  </Placemark>
  <Placemark>
	<name>Roman Catholic Mission Mishi School</name>
	<ExtendedData><SchemaData schemaUrl="#SELECT">
		<SimpleData name="osm_id">501292273</SimpleData>
		<SimpleData name="amenity">school</SimpleData>
	</SchemaData></ExtendedData>
      <Point><coordinates>8.6027,7.5659</coordinates></Point>
  </Placemark>
  <Placemark>
	<name>Rumuekpe</name>
	<ExtendedData><SchemaData schemaUrl="#SELECT">
		<SimpleData name="osm_id">501295336</SimpleData>
		<SimpleData name="man_made">gasfield</SimpleData>
	</SchemaData></ExtendedData>
      <Point><coordinates>6.75,4.983333</coordinates></Point>
  </Placemark>
  <Placemark>
	<name>Fikka</name>
	<ExtendedData><SchemaData schemaUrl="#SELECT">
		<SimpleData name="osm_id">501493520</SimpleData>
		<SimpleData name="amenity">Pika</SimpleData>
	</SchemaData></ExtendedData>
      <Point><coordinates>12.0089506,10.4335437</coordinates></Point>
  </Placemark>
  <Placemark>
	<name>Rumuafo Water Side Market</name>
	<ExtendedData><SchemaData schemaUrl="#SELECT">
		<SimpleData name="osm_id">501545729</SimpleData>
		<SimpleData name="amenity">marketplace</SimpleData>
	</SchemaData></ExtendedData>
      <Point><coordinates>6.772233,4.861473</coordinates></Point>
  </Placemark>
  <Placemark>
	<name>Water Side market</name>
	<ExtendedData><SchemaData schemaUrl="#SELECT">
		<SimpleData name="osm_id">501545730</SimpleData>
		<SimpleData name="amenity">marketplace</SimpleData>
	</SchemaData></ExtendedData>
      <Point><coordinates>6.8807826,4.9122057</coordinates></Point>
  </Placemark>
  <Placemark>
	<name>Elegedi Market</name>
	<ExtendedData><SchemaData schemaUrl="#SELECT">
		<SimpleData name="osm_id">501545731</SimpleData>
		<SimpleData name="amenity">marketplace</SimpleData>
	</SchemaData></ExtendedData>
      <Point><coordinates>6.7224955,4.851028</coordinates></Point>
  </Placemark>
  <Placemark>
	<ExtendedData><SchemaData schemaUrl="#SELECT">
		<SimpleData name="osm_id">537741163</SimpleData>
		<SimpleData name="man_made">wastewater_plant</SimpleData>
	</SchemaData></ExtendedData>
      <Point><coordinates>5.6416448,6.3759479</coordinates></Point>
  </Placemark>
  <Placemark>
	<name>Nicon</name>
	<ExtendedData><SchemaData schemaUrl="#SELECT">
		<SimpleData name="osm_id">539000064</SimpleData>
		<SimpleData name="tourism">hotel</SimpleData>
	</SchemaData></ExtendedData>
      <Point><coordinates>7.4941897,9.0454073</coordinates></Point>
  </Placemark>
  <Placemark>
	<name>Command Secondary School</name>
	<ExtendedData><SchemaData schemaUrl="#SELECT">
		<SimpleData name="osm_id">539450899</SimpleData>
		<SimpleData name="amenity">school</SimpleData>
	</SchemaData></ExtendedData>
      <Point><coordinates>7.4236304,10.4443208</coordinates></Point>
  </Placemark>
  <Placemark>
	<name>AP Fuel</name>
	<ExtendedData><SchemaData schemaUrl="#SELECT">
		<SimpleData name="osm_id">539450913</SimpleData>
		<SimpleData name="amenity">fuel</SimpleData>
	</SchemaData></ExtendedData>
      <Point><coordinates>7.4418431,10.5308028</coordinates></Point>
  </Placemark>
  <Placemark>
	<name>Mega Plaza</name>
	<ExtendedData><SchemaData schemaUrl="#SELECT">
		<SimpleData name="osm_id">539459795</SimpleData>
		<SimpleData name="amenity">fuel</SimpleData>
	</SchemaData></ExtendedData>
      <Point><coordinates>7.4053082,10.4401776</coordinates></Point>
  </Placemark>
  <Placemark>
	<name>Samrada Petroleum</name>
	<ExtendedData><SchemaData schemaUrl="#SELECT">
		<SimpleData name="osm_id">539459796</SimpleData>
		<SimpleData name="amenity">fuel</SimpleData>
	</SchemaData></ExtendedData>
      <Point><coordinates>7.420104,10.4443881</coordinates></Point>
  </Placemark>
  <Placemark>
	<ExtendedData><SchemaData schemaUrl="#SELECT">
		<SimpleData name="osm_id">539459798</SimpleData>
		<SimpleData name="amenity">fuel</SimpleData>
	</SchemaData></ExtendedData>
      <Point><coordinates>7.4242067,10.4450465</coordinates></Point>
  </Placemark>
  <Placemark>
	<name>Kano Motel</name>
	<ExtendedData><SchemaData schemaUrl="#SELECT">
		<SimpleData name="osm_id">540313619</SimpleData>
		<SimpleData name="tourism">motel</SimpleData>
	</SchemaData></ExtendedData>
      <Point><coordinates>7.4404286,10.5418876</coordinates></Point>
  </Placemark>
  <Placemark>
	<ExtendedData><SchemaData schemaUrl="#SELECT">
		<SimpleData name="osm_id">541685218</SimpleData>
		<SimpleData name="man_made">tower</SimpleData>
	</SchemaData></ExtendedData>
      <Point><coordinates>7.3968287,10.3630472</coordinates></Point>
  </Placemark>
  <Placemark>
	<ExtendedData><SchemaData schemaUrl="#SELECT">
		<SimpleData name="osm_id">541709712</SimpleData>
		<SimpleData name="man_made">tower</SimpleData>
	</SchemaData></ExtendedData>
      <Point><coordinates>7.3656658,9.4701371</coordinates></Point>
  </Placemark>
  <Placemark>
	<ExtendedData><SchemaData schemaUrl="#SELECT">
		<SimpleData name="osm_id">541709715</SimpleData>
		<SimpleData name="man_made">tower</SimpleData>
	</SchemaData></ExtendedData>
      <Point><coordinates>7.4156361,9.5298687</coordinates></Point>
  </Placemark>
  <Placemark>
	<ExtendedData><SchemaData schemaUrl="#SELECT">
		<SimpleData name="osm_id">541709718</SimpleData>
		<SimpleData name="man_made">tower</SimpleData>
	</SchemaData></ExtendedData>
      <Point><coordinates>7.4158481,9.5298269</coordinates></Point>
  </Placemark>
  <Placemark>
	<ExtendedData><SchemaData schemaUrl="#SELECT">
		<SimpleData name="osm_id">541709720</SimpleData>
		<SimpleData name="man_made">tower</SimpleData>
	</SchemaData></ExtendedData>
      <Point><coordinates>7.415834,9.5296039</coordinates></Point>
  </Placemark>
  <Placemark>
	<ExtendedData><SchemaData schemaUrl="#SELECT">
		<SimpleData name="osm_id">541709724</SimpleData>
		<SimpleData name="man_made">tower</SimpleData>
	</SchemaData></ExtendedData>
      <Point><coordinates>7.4155514,9.5295969</coordinates></Point>
  </Placemark>
  <Placemark>
	<ExtendedData><SchemaData schemaUrl="#SELECT">
		<SimpleData name="osm_id">541709727</SimpleData>
		<SimpleData name="man_made">tower</SimpleData>
	</SchemaData></ExtendedData>
      <Point><coordinates>7.4156644,9.5294437</coordinates></Point>
  </Placemark>
  <Placemark>
	<ExtendedData><SchemaData schemaUrl="#SELECT">
		<SimpleData name="osm_id">541709730</SimpleData>
		<SimpleData name="man_made">tower</SimpleData>
	</SchemaData></ExtendedData>
      <Point><coordinates>7.3734397,10.0763557</coordinates></Point>
  </Placemark>
  <Placemark>
	<ExtendedData><SchemaData schemaUrl="#SELECT">
		<SimpleData name="osm_id">541709735</SimpleData>
		<SimpleData name="man_made">tower</SimpleData>
	</SchemaData></ExtendedData>
      <Point><coordinates>7.3555648,10.1354976</coordinates></Point>
  </Placemark>
  <Placemark>
	<ExtendedData><SchemaData schemaUrl="#SELECT">
		<SimpleData name="osm_id">541709740</SimpleData>
		<SimpleData name="man_made">tower</SimpleData>
	</SchemaData></ExtendedData>
      <Point><coordinates>7.4133476,10.0017177</coordinates></Point>
  </Placemark>
  <Placemark>
	<ExtendedData><SchemaData schemaUrl="#SELECT">
		<SimpleData name="osm_id">541709745</SimpleData>
		<SimpleData name="man_made">tower</SimpleData>
	</SchemaData></ExtendedData>
      <Point><coordinates>7.407031,9.9995145</coordinates></Point>
  </Placemark>
  <Placemark>
	<ExtendedData><SchemaData schemaUrl="#SELECT">
		<SimpleData name="osm_id">541709748</SimpleData>
		<SimpleData name="man_made">tower</SimpleData>
	</SchemaData></ExtendedData>
      <Point><coordinates>7.3487549,10.1976009</coordinates></Point>
  </Placemark>
  <Placemark>
	<ExtendedData><SchemaData schemaUrl="#SELECT">
		<SimpleData name="osm_id">541709752</SimpleData>
		<SimpleData name="man_made">tower</SimpleData>
	</SchemaData></ExtendedData>
      <Point><coordinates>7.3579387,10.2777429</coordinates></Point>
  </Placemark>
  <Placemark>
	<ExtendedData><SchemaData schemaUrl="#SELECT">
		<SimpleData name="osm_id">541709756</SimpleData>
		<SimpleData name="man_made">tower</SimpleData>
	</SchemaData></ExtendedData>
      <Point><coordinates>7.3595682,10.2774249</coordinates></Point>
  </Placemark>
  <Placemark>
	<ExtendedData><SchemaData schemaUrl="#SELECT">
		<SimpleData name="osm_id">541709759</SimpleData>
		<SimpleData name="man_made">tower</SimpleData>
	</SchemaData></ExtendedData>
      <Point><coordinates>7.3499882,10.2434008</coordinates></Point>
  </Placemark>
  <Placemark>
	<name>Texaco</name>
	<ExtendedData><SchemaData schemaUrl="#SELECT">
		<SimpleData name="osm_id">541709762</SimpleData>
		<SimpleData name="amenity">fuel</SimpleData>
	</SchemaData></ExtendedData>
      <Point><coordinates>7.393532,10.3388476</coordinates></Point>
  </Placemark>
  <Placemark>
	<ExtendedData><SchemaData schemaUrl="#SELECT">
		<SimpleData name="osm_id">541717487</SimpleData>
		<SimpleData name="man_made">tower</SimpleData>
	</SchemaData></ExtendedData>
      <Point><coordinates>7.427374,9.5773232</coordinates></Point>
  </Placemark>
  <Placemark>
	<ExtendedData><SchemaData schemaUrl="#SELECT">
		<SimpleData name="osm_id">541717515</SimpleData>
		<SimpleData name="man_made">tower</SimpleData>
	</SchemaData></ExtendedData>
      <Point><coordinates>7.4495621,9.6021614</coordinates></Point>
  </Placemark>
  <Placemark>
	<ExtendedData><SchemaData schemaUrl="#SELECT">
		<SimpleData name="osm_id">541747134</SimpleData>
		<SimpleData name="man_made">tower</SimpleData>
	</SchemaData></ExtendedData>
      <Point><coordinates>7.4532247,9.6816655</coordinates></Point>
  </Placemark>
  <Placemark>
	<ExtendedData><SchemaData schemaUrl="#SELECT">
		<SimpleData name="osm_id">541747141</SimpleData>
		<SimpleData name="man_made">tower</SimpleData>
	</SchemaData></ExtendedData>
      <Point><coordinates>7.4531035,9.6997878</coordinates></Point>
  </Placemark>
  <Placemark>
	<ExtendedData><SchemaData schemaUrl="#SELECT">
		<SimpleData name="osm_id">541747149</SimpleData>
		<SimpleData name="man_made">tower</SimpleData>
	</SchemaData></ExtendedData>
      <Point><coordinates>7.4530956,9.6996674</coordinates></Point>
  </Placemark>
  <Placemark>
	<ExtendedData><SchemaData schemaUrl="#SELECT">
		<SimpleData name="osm_id">541747157</SimpleData>
		<SimpleData name="man_made">tower</SimpleData>
	</SchemaData></ExtendedData>
      <Point><coordinates>7.4533695,9.6976966</coordinates></Point>
  </Placemark>
  <Placemark>
	<ExtendedData><SchemaData schemaUrl="#SELECT">
		<SimpleData name="osm_id">541747164</SimpleData>
		<SimpleData name="man_made">tower</SimpleData>
	</SchemaData></ExtendedData>
      <Point><coordinates>7.4529941,9.6976857</coordinates></Point>
  </Placemark>
  <Placemark>
	<ExtendedData><SchemaData schemaUrl="#SELECT">
		<SimpleData name="osm_id">541747168</SimpleData>
		<SimpleData name="man_made">tower</SimpleData>
	</SchemaData></ExtendedData>
      <Point><coordinates>7.4515638,9.7578846</coordinates></Point>
  </Placemark>
  <Placemark>
	<ExtendedData><SchemaData schemaUrl="#SELECT">
		<SimpleData name="osm_id">541747175</SimpleData>
		<SimpleData name="man_made">tower</SimpleData>
	</SchemaData></ExtendedData>
      <Point><coordinates>7.460682,9.8470722</coordinates></Point>
  </Placemark>
  <Placemark>
	<ExtendedData><SchemaData schemaUrl="#SELECT">
		<SimpleData name="osm_id">541747183</SimpleData>
		<SimpleData name="man_made">tower</SimpleData>
	</SchemaData></ExtendedData>
      <Point><coordinates>7.4448307,9.8996376</coordinates></Point>
  </Placemark>
  <Placemark>
	<ExtendedData><SchemaData schemaUrl="#SELECT">
		<SimpleData name="osm_id">541747188</SimpleData>
		<SimpleData name="man_made">tower</SimpleData>
	</SchemaData></ExtendedData>
      <Point><coordinates>7.445673,9.9002748</coordinates></Point>
  </Placemark>
  <Placemark>
	<ExtendedData><SchemaData schemaUrl="#SELECT">
		<SimpleData name="osm_id">541747193</SimpleData>
		<SimpleData name="man_made">tower</SimpleData>
	</SchemaData></ExtendedData>
      <Point><coordinates>7.4452081,9.8988677</coordinates></Point>
  </Placemark>
  <Placemark>
	<ExtendedData><SchemaData schemaUrl="#SELECT">
		<SimpleData name="osm_id">541747199</SimpleData>
		<SimpleData name="man_made">tower</SimpleData>
	</SchemaData></ExtendedData>
      <Point><coordinates>7.4459627,9.8992924</coordinates></Point>
  </Placemark>
  <Placemark>
	<ExtendedData><SchemaData schemaUrl="#SELECT">
		<SimpleData name="osm_id">541747205</SimpleData>
		<SimpleData name="man_made">tower</SimpleData>
	</SchemaData></ExtendedData>
      <Point><coordinates>7.4324224,9.9233335</coordinates></Point>
  </Placemark>
  <Placemark>
	<ExtendedData><SchemaData schemaUrl="#SELECT">
		<SimpleData name="osm_id">541747210</SimpleData>
		<SimpleData name="man_made">tower</SimpleData>
	</SchemaData></ExtendedData>
      <Point><coordinates>7.3850622,10.0524537</coordinates></Point>
  </Placemark>
  <Placemark>
	<ExtendedData><SchemaData schemaUrl="#SELECT">
		<SimpleData name="osm_id">541747216</SimpleData>
		<SimpleData name="man_made">tower</SimpleData>
	</SchemaData></ExtendedData>
      <Point><coordinates>7.3835799,10.0563348</coordinates></Point>
  </Placemark>
  <Placemark>
	<ExtendedData><SchemaData schemaUrl="#SELECT">
		<SimpleData name="osm_id">541747220</SimpleData>
		<SimpleData name="man_made">tower</SimpleData>
	</SchemaData></ExtendedData>
      <Point><coordinates>7.3846243,10.0566997</coordinates></Point>
  </Placemark>
  <Placemark>
	<name>Conoil</name>
	<ExtendedData><SchemaData schemaUrl="#SELECT">
		<SimpleData name="osm_id">541747244</SimpleData>
		<SimpleData name="amenity">fuel</SimpleData>
	</SchemaData></ExtendedData>
      <Point><coordinates>7.4038409,10.4333871</coordinates></Point>
  </Placemark>
  <Placemark>
	<name>Marigold Hotel</name>
	<ExtendedData><SchemaData schemaUrl="#SELECT">
		<SimpleData name="osm_id">541790953</SimpleData>
		<SimpleData name="tourism">hotel</SimpleData>
	</SchemaData></ExtendedData>
      <Point><coordinates>7.4240179,10.4467144</coordinates></Point>
  </Placemark>
  <Placemark>
	<name>Royal Tropicana Hotel</name>
	<ExtendedData><SchemaData schemaUrl="#SELECT">
		<SimpleData name="osm_id">541790960</SimpleData>
		<SimpleData name="tourism">hotel</SimpleData>
	</SchemaData></ExtendedData>
      <Point><coordinates>7.4240093,10.4472208</coordinates></Point>
  </Placemark>
  <Placemark>
	<name>Total</name>
	<ExtendedData><SchemaData schemaUrl="#SELECT">
		<SimpleData name="osm_id">541790962</SimpleData>
		<SimpleData name="amenity">fuel</SimpleData>
	</SchemaData></ExtendedData>
      <Point><coordinates>7.4230308,10.4521029</coordinates></Point>
  </Placemark>
  <Placemark>
	<name>Woodcraft</name>
	<ExtendedData><SchemaData schemaUrl="#SELECT">
		<SimpleData name="osm_id">541790969</SimpleData>
		<SimpleData name="man_made">works</SimpleData>
	</SchemaData></ExtendedData>
      <Point><coordinates>7.4241037,10.4553779</coordinates></Point>
  </Placemark>
  <Placemark>
	<name>UBA</name>
	<ExtendedData><SchemaData schemaUrl="#SELECT">
		<SimpleData name="osm_id">541790973</SimpleData>
		<SimpleData name="amenity">bank</SimpleData>
	</SchemaData></ExtendedData>
      <Point><coordinates>7.420784,10.4645311</coordinates></Point>
  </Placemark>
  <Placemark>
	<ExtendedData><SchemaData schemaUrl="#SELECT">
		<SimpleData name="osm_id">541790978</SimpleData>
		<SimpleData name="amenity">police</SimpleData>
	</SchemaData></ExtendedData>
      <Point><coordinates>7.4213419,10.470971</coordinates></Point>
  </Placemark>
  <Placemark>
	<name>Oando</name>
	<ExtendedData><SchemaData schemaUrl="#SELECT">
		<SimpleData name="osm_id">541790996</SimpleData>
		<SimpleData name="amenity">fuel</SimpleData>
	</SchemaData></ExtendedData>
      <Point><coordinates>7.4206315,10.4756359</coordinates></Point>
  </Placemark>
  <Placemark>
	<name>Union Bank</name>
	<ExtendedData><SchemaData schemaUrl="#SELECT">
		<SimpleData name="osm_id">541791000</SimpleData>
		<SimpleData name="amenity">bank</SimpleData>
	</SchemaData></ExtendedData>
      <Point><coordinates>7.4199064,10.4782583</coordinates></Point>
  </Placemark>
  <Placemark>
	<name>Bank PHB</name>
	<ExtendedData><SchemaData schemaUrl="#SELECT">
		<SimpleData name="osm_id">541815077</SimpleData>
		<SimpleData name="amenity">bank</SimpleData>
	</SchemaData></ExtendedData>
      <Point><coordinates>7.4192459,10.4828177</coordinates></Point>
  </Placemark>
  <Placemark>
	<name>Standard Chartered</name>
	<ExtendedData><SchemaData schemaUrl="#SELECT">
		<SimpleData name="osm_id">541815080</SimpleData>
		<SimpleData name="amenity">bank</SimpleData>
	</SchemaData></ExtendedData>
      <Point><coordinates>7.4189597,10.4841858</coordinates></Point>
  </Placemark>
  <Placemark>
	<name>Sharon Oil</name>
	<ExtendedData><SchemaData schemaUrl="#SELECT">
		<SimpleData name="osm_id">541815082</SimpleData>
		<SimpleData name="amenity">fuel</SimpleData>
	</SchemaData></ExtendedData>
      <Point><coordinates>7.4188787,10.4861748</coordinates></Point>
  </Placemark>
  <Placemark>
	<name>Total</name>
	<ExtendedData><SchemaData schemaUrl="#SELECT">
		<SimpleData name="osm_id">541815085</SimpleData>
		<SimpleData name="amenity">fuel</SimpleData>
	</SchemaData></ExtendedData>
      <Point><coordinates>7.418309,10.4863973</coordinates></Point>
  </Placemark>
  <Placemark>
	<name>Sharon</name>
	<ExtendedData><SchemaData schemaUrl="#SELECT">
		<SimpleData name="osm_id">541815090</SimpleData>
		<SimpleData name="amenity">fuel</SimpleData>
	</SchemaData></ExtendedData>
      <Point><coordinates>7.4184454,10.4879203</coordinates></Point>
  </Placemark>
  <Placemark>
	<name>AP Fuel</name>
	<ExtendedData><SchemaData schemaUrl="#SELECT">
		<SimpleData name="osm_id">541815091</SimpleData>
		<SimpleData name="amenity">fuel</SimpleData>
	</SchemaData></ExtendedData>
      <Point><coordinates>7.4188949,10.4877048</coordinates></Point>
  </Placemark>
  <Placemark>
	<ExtendedData><SchemaData schemaUrl="#SELECT">
		<SimpleData name="osm_id">541815094</SimpleData>
		<SimpleData name="man_made">tower</SimpleData>
	</SchemaData></ExtendedData>
      <Point><coordinates>7.419017,10.49073</coordinates></Point>
  </Placemark>
  <Placemark>
	<ExtendedData><SchemaData schemaUrl="#SELECT">
		<SimpleData name="osm_id">541815097</SimpleData>
		<SimpleData name="man_made">tower</SimpleData>
	</SchemaData></ExtendedData>
      <Point><coordinates>7.4191581,10.4907193</coordinates></Point>
  </Placemark>
  <Placemark>
	<ExtendedData><SchemaData schemaUrl="#SELECT">
		<SimpleData name="osm_id">541815099</SimpleData>
		<SimpleData name="man_made">tower</SimpleData>
	</SchemaData></ExtendedData>
      <Point><coordinates>7.4190749,10.490609</coordinates></Point>
  </Placemark>
  <Placemark>
	<name>Eko Bank</name>
	<ExtendedData><SchemaData schemaUrl="#SELECT">
		<SimpleData name="osm_id">541815101</SimpleData>
		<SimpleData name="amenity">bank</SimpleData>
	</SchemaData></ExtendedData>
      <Point><coordinates>7.419102,10.4951688</coordinates></Point>
  </Placemark>
  <Placemark>
	<name>Embassy of Burundi</name>
	<ExtendedData><SchemaData schemaUrl="#SELECT">
		<SimpleData name="osm_id">541822746</SimpleData>
		<SimpleData name="amenity">embassy</SimpleData>
	</SchemaData></ExtendedData>
      <Point><coordinates>7.5194501,9.026932</coordinates></Point>
  </Placemark>
  <Placemark>
	<name>Ekiti State</name>
	<ExtendedData><SchemaData schemaUrl="#SELECT">
		<SimpleData name="osm_id">541822752</SimpleData>
		<SimpleData name="amenity">public_building</SimpleData>
	</SchemaData></ExtendedData>
      <Point><coordinates>7.5196035,9.0272264</coordinates></Point>
  </Placemark>
  <Placemark>
	<name>Ekiti State</name>
	<ExtendedData><SchemaData schemaUrl="#SELECT">
		<SimpleData name="osm_id">541822757</SimpleData>
		<SimpleData name="amenity">public_building</SimpleData>
	</SchemaData></ExtendedData>
      <Point><coordinates>7.5217342,9.0311654</coordinates></Point>
  </Placemark>
  <Placemark>
	<name>Manan</name>
	<ExtendedData><SchemaData schemaUrl="#SELECT">
		<SimpleData name="osm_id">541871957</SimpleData>
		<SimpleData name="shop">supermarket</SimpleData>
	</SchemaData></ExtendedData>
      <Point><coordinates>7.5252482,9.0404923</coordinates></Point>
  </Placemark>
  <Placemark>
	<name>Ocaeanic Bank</name>
	<ExtendedData><SchemaData schemaUrl="#SELECT">
		<SimpleData name="osm_id">541871980</SimpleData>
		<SimpleData name="amenity">bank</SimpleData>
	</SchemaData></ExtendedData>
      <Point><coordinates>7.5263567,9.043598</coordinates></Point>
  </Placemark>
  <Placemark>
	<name>UBA</name>
	<ExtendedData><SchemaData schemaUrl="#SELECT">
		<SimpleData name="osm_id">541871985</SimpleData>
		<SimpleData name="amenity">bank</SimpleData>
	</SchemaData></ExtendedData>
      <Point><coordinates>7.5269299,9.0443925</coordinates></Point>
  </Placemark>
  <Placemark>
	<name>Access Bank</name>
	<ExtendedData><SchemaData schemaUrl="#SELECT">
		<SimpleData name="osm_id">541871994</SimpleData>
		<SimpleData name="amenity">bank</SimpleData>
	</SchemaData></ExtendedData>
      <Point><coordinates>7.5272312,9.0448297</coordinates></Point>
  </Placemark>
  <Placemark>
	<name>Oceanic Bank</name>
	<ExtendedData><SchemaData schemaUrl="#SELECT">
		<SimpleData name="osm_id">541872002</SimpleData>
		<SimpleData name="amenity">bank</SimpleData>
	</SchemaData></ExtendedData>
      <Point><coordinates>7.5273546,9.0451054</coordinates></Point>
  </Placemark>
  <Placemark>
	<name>Skye Bank</name>
	<ExtendedData><SchemaData schemaUrl="#SELECT">
		<SimpleData name="osm_id">541872006</SimpleData>
		<SimpleData name="amenity">bank</SimpleData>
	</SchemaData></ExtendedData>
      <Point><coordinates>7.5271807,9.0473133</coordinates></Point>
  </Placemark>
  <Placemark>
	<name>G2 Bank</name>
	<ExtendedData><SchemaData schemaUrl="#SELECT">
		<SimpleData name="osm_id">541872011</SimpleData>
		<SimpleData name="amenity">bank</SimpleData>
	</SchemaData></ExtendedData>
      <Point><coordinates>7.5271489,9.0474534</coordinates></Point>
  </Placemark>
  <Placemark>
	<name>Echo Bank</name>
	<ExtendedData><SchemaData schemaUrl="#SELECT">
		<SimpleData name="osm_id">541872019</SimpleData>
		<SimpleData name="amenity">bank</SimpleData>
	</SchemaData></ExtendedData>
      <Point><coordinates>7.5270997,9.0475791</coordinates></Point>
  </Placemark>
  <Placemark>
	<name>Zenith Bank</name>
	<ExtendedData><SchemaData schemaUrl="#SELECT">
		<SimpleData name="osm_id">541872025</SimpleData>
		<SimpleData name="amenity">bank</SimpleData>
	</SchemaData></ExtendedData>
      <Point><coordinates>7.527065,9.0476877</coordinates></Point>
  </Placemark>
  <Placemark>
	<ExtendedData><SchemaData schemaUrl="#SELECT">
		<SimpleData name="osm_id">541906885</SimpleData>
		<SimpleData name="man_made">tower</SimpleData>
	</SchemaData></ExtendedData>
      <Point><coordinates>7.2994522,8.94205</coordinates></Point>
  </Placemark>
  <Placemark>
	<ExtendedData><SchemaData schemaUrl="#SELECT">
		<SimpleData name="osm_id">541906890</SimpleData>
		<SimpleData name="man_made">tower</SimpleData>
	</SchemaData></ExtendedData>
      <Point><coordinates>7.3276566,8.9459014</coordinates></Point>
  </Placemark>
  <Placemark>
	<ExtendedData><SchemaData schemaUrl="#SELECT">
		<SimpleData name="osm_id">541906892</SimpleData>
		<SimpleData name="man_made">tower</SimpleData>
	</SchemaData></ExtendedData>
      <Point><coordinates>7.3308489,8.9481608</coordinates></Point>
  </Placemark>
  <Placemark>
	<name>Conoil</name>
	<ExtendedData><SchemaData schemaUrl="#SELECT">
		<SimpleData name="osm_id">541906896</SimpleData>
		<SimpleData name="amenity">fuel</SimpleData>
	</SchemaData></ExtendedData>
      <Point><coordinates>7.3424435,8.958858</coordinates></Point>
  </Placemark>
  <Placemark>
	<ExtendedData><SchemaData schemaUrl="#SELECT">
		<SimpleData name="osm_id">541906900</SimpleData>
		<SimpleData name="man_made">tower</SimpleData>
	</SchemaData></ExtendedData>
      <Point><coordinates>7.3578796,8.9706504</coordinates></Point>
  </Placemark>
  <Placemark>
	<ExtendedData><SchemaData schemaUrl="#SELECT">
		<SimpleData name="osm_id">541906905</SimpleData>
		<SimpleData name="man_made">tower</SimpleData>
	</SchemaData></ExtendedData>
      <Point><coordinates>7.3936247,8.9889097</coordinates></Point>
  </Placemark>
  <Placemark>
	<ExtendedData><SchemaData schemaUrl="#SELECT">
		<SimpleData name="osm_id">541906908</SimpleData>
		<SimpleData name="man_made">tower</SimpleData>
	</SchemaData></ExtendedData>
      <Point><coordinates>7.4034526,8.9938974</coordinates></Point>
  </Placemark>
  <Placemark>
	<name>Nigerian Military Cemetery</name>
	<ExtendedData><SchemaData schemaUrl="#SELECT">
		<SimpleData name="osm_id">541906920</SimpleData>
		<SimpleData name="man_made">tower</SimpleData>
	</SchemaData></ExtendedData>
      <Point><coordinates>7.4300444,9.0254172</coordinates></Point>
  </Placemark>
  <Placemark>
	<ExtendedData><SchemaData schemaUrl="#SELECT">
		<SimpleData name="osm_id">541906924</SimpleData>
		<SimpleData name="man_made">tower</SimpleData>
	</SchemaData></ExtendedData>
      <Point><coordinates>7.4504546,9.0384023</coordinates></Point>
  </Placemark>
  <Placemark>
	<name>Oando</name>
	<ExtendedData><SchemaData schemaUrl="#SELECT">
		<SimpleData name="osm_id">541918547</SimpleData>
		<SimpleData name="amenity">fuel</SimpleData>
	</SchemaData></ExtendedData>
      <Point><coordinates>7.4759982,9.0632405</coordinates></Point>
  </Placemark>
  <Placemark>
	<name>Zenith Bank</name>
	<ExtendedData><SchemaData schemaUrl="#SELECT">
		<SimpleData name="osm_id">541918553</SimpleData>
		<SimpleData name="amenity">bank</SimpleData>
	</SchemaData></ExtendedData>
      <Point><coordinates>7.4775909,9.0630639</coordinates></Point>
  </Placemark>
  <Placemark>
	<name>Fin Bank</name>
	<ExtendedData><SchemaData schemaUrl="#SELECT">
		<SimpleData name="osm_id">543689340</SimpleData>
		<SimpleData name="amenity">bank</SimpleData>
	</SchemaData></ExtendedData>
      <Point><coordinates>7.4283113,10.5022303</coordinates></Point>
  </Placemark>
  <Placemark>
	<name>NNA Hotel</name>
	<ExtendedData><SchemaData schemaUrl="#SELECT">
		<SimpleData name="osm_id">543689344</SimpleData>
		<SimpleData name="tourism">hotel</SimpleData>
	</SchemaData></ExtendedData>
      <Point><coordinates>7.4304746,10.5026871</coordinates></Point>
  </Placemark>
  <Placemark>
	<name>Zenith Bank</name>
	<ExtendedData><SchemaData schemaUrl="#SELECT">
		<SimpleData name="osm_id">543689347</SimpleData>
		<SimpleData name="amenity">bank</SimpleData>
	</SchemaData></ExtendedData>
      <Point><coordinates>7.431698,10.5223909</coordinates></Point>
  </Placemark>
  <Placemark>
	<name>Unity Bank</name>
	<ExtendedData><SchemaData schemaUrl="#SELECT">
		<SimpleData name="osm_id">543712489</SimpleData>
		<SimpleData name="amenity">bank</SimpleData>
	</SchemaData></ExtendedData>
      <Point><coordinates>7.428441,10.5198423</coordinates></Point>
  </Placemark>
  <Placemark>
	<name>Texaco</name>
	<ExtendedData><SchemaData schemaUrl="#SELECT">
		<SimpleData name="osm_id">543712493</SimpleData>
		<SimpleData name="amenity">fuel</SimpleData>
	</SchemaData></ExtendedData>
      <Point><coordinates>7.4300868,10.5218061</coordinates></Point>
  </Placemark>
  <Placemark>
	<name>Freedom Air Services</name>
	<ExtendedData><SchemaData schemaUrl="#SELECT">
		<SimpleData name="osm_id">544297028</SimpleData>
		<SimpleData name="man_made">works</SimpleData>
	</SchemaData></ExtendedData>
      <Point><coordinates>7.4594194,10.5497017</coordinates></Point>
  </Placemark>
  <Placemark>
	<name>Kung Fu Chinese Restaurant</name>
	<ExtendedData><SchemaData schemaUrl="#SELECT">
		<SimpleData name="osm_id">544297029</SimpleData>
		<SimpleData name="amenity">restaurant</SimpleData>
	</SchemaData></ExtendedData>
      <Point><coordinates>7.4592312,10.5486078</coordinates></Point>
  </Placemark>
  <Placemark>
	<name>The Chasel Hospital</name>
	<ExtendedData><SchemaData schemaUrl="#SELECT">
		<SimpleData name="osm_id">544297959</SimpleData>
		<SimpleData name="amenity">hospital</SimpleData>
	</SchemaData></ExtendedData>
      <Point><coordinates>7.4458214,10.5452139</coordinates></Point>
  </Placemark>
  <Placemark>
	<name>Big Treat</name>
	<ExtendedData><SchemaData schemaUrl="#SELECT">
		<SimpleData name="osm_id">544297961</SimpleData>
		<SimpleData name="amenity">restaurant</SimpleData>
	</SchemaData></ExtendedData>
      <Point><coordinates>7.4505505,10.5475918</coordinates></Point>
  </Placemark>
  <Placemark>
	<name>Benue Guest Inn</name>
	<ExtendedData><SchemaData schemaUrl="#SELECT">
		<SimpleData name="osm_id">544297966</SimpleData>
		<SimpleData name="tourism">guest_house</SimpleData>
	</SchemaData></ExtendedData>
      <Point><coordinates>7.4523154,10.5519886</coordinates></Point>
  </Placemark>
  <Placemark>
	<name>Afribank</name>
	<ExtendedData><SchemaData schemaUrl="#SELECT">
		<SimpleData name="osm_id">544421187</SimpleData>
		<SimpleData name="amenity">bank</SimpleData>
	</SchemaData></ExtendedData>
      <Point><coordinates>7.4374501,10.535544</coordinates></Point>
  </Placemark>
  <Placemark>
	<name>GT Bank</name>
	<ExtendedData><SchemaData schemaUrl="#SELECT">
		<SimpleData name="osm_id">544421190</SimpleData>
		<SimpleData name="amenity">bank</SimpleData>
	</SchemaData></ExtendedData>
      <Point><coordinates>7.4381188,10.53556</coordinates></Point>
  </Placemark>
  <Placemark>
	<ExtendedData><SchemaData schemaUrl="#SELECT">
		<SimpleData name="osm_id">544421191</SimpleData>
		<SimpleData name="man_made">tower</SimpleData>
	</SchemaData></ExtendedData>
      <Point><coordinates>7.4422205,10.5394428</coordinates></Point>
  </Placemark>
  <Placemark>
	<ExtendedData><SchemaData schemaUrl="#SELECT">
		<SimpleData name="osm_id">544424300</SimpleData>
		<SimpleData name="man_made">tower</SimpleData>
	</SchemaData></ExtendedData>
      <Point><coordinates>7.4471627,10.5351982</coordinates></Point>
  </Placemark>
  <Placemark>
	<name>Sanab Luxury Inn</name>
	<ExtendedData><SchemaData schemaUrl="#SELECT">
		<SimpleData name="osm_id">544424311</SimpleData>
		<SimpleData name="tourism">hotel</SimpleData>
	</SchemaData></ExtendedData>
      <Point><coordinates>7.4559817,10.5374848</coordinates></Point>
  </Placemark>
  <Placemark>
	<name>Palm View Guest House</name>
	<ExtendedData><SchemaData schemaUrl="#SELECT">
		<SimpleData name="osm_id">544426359</SimpleData>
		<SimpleData name="tourism">guest_house</SimpleData>
	</SchemaData></ExtendedData>
      <Point><coordinates>7.4540644,10.5528245</coordinates></Point>
  </Placemark>
  <Placemark>
	<ExtendedData><SchemaData schemaUrl="#SELECT">
		<SimpleData name="osm_id">544426362</SimpleData>
		<SimpleData name="amenity">atm</SimpleData>
	</SchemaData></ExtendedData>
      <Point><coordinates>7.4527377,10.5528045</coordinates></Point>
  </Placemark>
  <Placemark>
	<name>Peace Guest House</name>
	<ExtendedData><SchemaData schemaUrl="#SELECT">
		<SimpleData name="osm_id">544426363</SimpleData>
		<SimpleData name="tourism">guest_house</SimpleData>
	</SchemaData></ExtendedData>
      <Point><coordinates>7.4554523,10.5532681</coordinates></Point>
  </Placemark>
  <Placemark>
	<name>Kalnaz Cinema</name>
	<ExtendedData><SchemaData schemaUrl="#SELECT">
		<SimpleData name="osm_id">544426364</SimpleData>
		<SimpleData name="amenity">cinema</SimpleData>
	</SchemaData></ExtendedData>
      <Point><coordinates>7.4561773,10.553263</coordinates></Point>
  </Placemark>
  <Placemark>
	<name>Oando</name>
	<ExtendedData><SchemaData schemaUrl="#SELECT">
		<SimpleData name="osm_id">548628790</SimpleData>
		<SimpleData name="amenity">fuel</SimpleData>
	</SchemaData></ExtendedData>
      <Point><coordinates>7.7196567,11.0985282</coordinates></Point>
  </Placemark>
  <Placemark>
	<name>Tee Jay Palace Hotel Zaria</name>
	<ExtendedData><SchemaData schemaUrl="#SELECT">
		<SimpleData name="osm_id">549801579</SimpleData>
		<SimpleData name="tourism">hotel</SimpleData>
	</SchemaData></ExtendedData>
      <Point><coordinates>7.7103843,11.110004</coordinates></Point>
  </Placemark>
  <Placemark>
	<name>Mates Bar</name>
	<ExtendedData><SchemaData schemaUrl="#SELECT">
		<SimpleData name="osm_id">550079496</SimpleData>
		<SimpleData name="amenity">pub</SimpleData>
	</SchemaData></ExtendedData>
      <Point><coordinates>7.7228392,11.1017213</coordinates></Point>
  </Placemark>
  <Placemark>
	<name>Mussafir Hotel</name>
	<ExtendedData><SchemaData schemaUrl="#SELECT">
		<SimpleData name="osm_id">550137899</SimpleData>
		<SimpleData name="tourism">hotel</SimpleData>
	</SchemaData></ExtendedData>
      <Point><coordinates>7.4268898,10.5022723</coordinates></Point>
  </Placemark>
  <Placemark>
	<name>Hamdala Motel</name>
	<ExtendedData><SchemaData schemaUrl="#SELECT">
		<SimpleData name="osm_id">552935223</SimpleData>
		<SimpleData name="tourism">motel</SimpleData>
		<SimpleData name="addr:street">Muhammadu Buhari Way</SimpleData>
		<SimpleData name="addr:city">Kaduna</SimpleData>
	</SchemaData></ExtendedData>
      <Point><coordinates>7.4421894,10.5293297</coordinates></Point>
  </Placemark>
  <Placemark>
	<name>Byblos</name>
	<ExtendedData><SchemaData schemaUrl="#SELECT">
		<SimpleData name="osm_id">552939923</SimpleData>
		<SimpleData name="amenity">restaurant</SimpleData>
	</SchemaData></ExtendedData>
      <Point><coordinates>7.4315809,10.5436064</coordinates></Point>
  </Placemark>
  <Placemark>
	<name>Kaduna Club</name>
	<ExtendedData><SchemaData schemaUrl="#SELECT">
		<SimpleData name="osm_id">552954016</SimpleData>
		<SimpleData name="amenity">pub</SimpleData>
	</SchemaData></ExtendedData>
      <Point><coordinates>7.4379332,10.5437264</coordinates></Point>
  </Placemark>
  <Placemark>
	<name>Conoil</name>
	<ExtendedData><SchemaData schemaUrl="#SELECT">
		<SimpleData name="osm_id">552954019</SimpleData>
		<SimpleData name="amenity">fuel</SimpleData>
	</SchemaData></ExtendedData>
      <Point><coordinates>7.4300228,10.5252682</coordinates></Point>
  </Placemark>
  <Placemark>
	<ExtendedData><SchemaData schemaUrl="#SELECT">
		<SimpleData name="osm_id">552954021</SimpleData>
		<SimpleData name="man_made">tower</SimpleData>
	</SchemaData></ExtendedData>
      <Point><coordinates>7.4282462,10.5396968</coordinates></Point>
  </Placemark>
  <Placemark>
	<name>NAF Club</name>
	<ExtendedData><SchemaData schemaUrl="#SELECT">
		<SimpleData name="osm_id">552954722</SimpleData>
		<SimpleData name="amenity">pub</SimpleData>
	</SchemaData></ExtendedData>
      <Point><coordinates>7.4519902,10.5527571</coordinates></Point>
  </Placemark>
  <Placemark>
	<ExtendedData><SchemaData schemaUrl="#SELECT">
		<SimpleData name="osm_id">552965311</SimpleData>
		<SimpleData name="man_made">tower</SimpleData>
	</SchemaData></ExtendedData>
      <Point><coordinates>7.4566341,10.5386237</coordinates></Point>
  </Placemark>
  <Placemark>
	<name>St Johns Catholic Church</name>
	<ExtendedData><SchemaData schemaUrl="#SELECT">
		<SimpleData name="osm_id">552969130</SimpleData>
		<SimpleData name="amenity">place_of_worship</SimpleData>
	</SchemaData></ExtendedData>
      <Point><coordinates>7.4529223,10.5159037</coordinates></Point>
  </Placemark>
  <Placemark>
	<name>Olesegun Obasanjo House</name>
	<ExtendedData><SchemaData schemaUrl="#SELECT">
		<SimpleData name="osm_id">553102358</SimpleData>
		<SimpleData name="amenity">public_building</SimpleData>
	</SchemaData></ExtendedData>
      <Point><coordinates>7.436394,10.5232593</coordinates></Point>
  </Placemark>
  <Placemark>
	<name>FRCN / Radio Nigeria</name>
	<ExtendedData><SchemaData schemaUrl="#SELECT">
		<SimpleData name="osm_id">553102359</SimpleData>
		<SimpleData name="amenity">public_building</SimpleData>
	</SchemaData></ExtendedData>
      <Point><coordinates>7.4386093,10.5240164</coordinates></Point>
  </Placemark>
  <Placemark>
	<name>Nigeria Television Authority</name>
	<ExtendedData><SchemaData schemaUrl="#SELECT">
		<SimpleData name="osm_id">553102360</SimpleData>
		<SimpleData name="amenity">public_building</SimpleData>
	</SchemaData></ExtendedData>
      <Point><coordinates>7.4387788,10.5235534</coordinates></Point>
  </Placemark>
  <Placemark>
	<name>Command Guest House</name>
	<ExtendedData><SchemaData schemaUrl="#SELECT">
		<SimpleData name="osm_id">553112133</SimpleData>
		<SimpleData name="tourism">hotel</SimpleData>
		<SimpleData name="addr:housenumber">10</SimpleData>
		<SimpleData name="addr:street">Muhammadu Buhari Way / Waff Road</SimpleData>
		<SimpleData name="addr:city">Kaduna</SimpleData>
	</SchemaData></ExtendedData>
      <Point><coordinates>7.4333575,10.5291454</coordinates></Point>
  </Placemark>
  <Placemark>
	<name>Adriel Hotel</name>
	<ExtendedData><SchemaData schemaUrl="#SELECT">
		<SimpleData name="osm_id">553112139</SimpleData>
		<SimpleData name="tourism">hotel</SimpleData>
	</SchemaData></ExtendedData>
      <Point><coordinates>7.4269472,10.5306269</coordinates></Point>
  </Placemark>
  <Placemark>
	<name>Police House</name>
	<ExtendedData><SchemaData schemaUrl="#SELECT">
		<SimpleData name="osm_id">553112145</SimpleData>
		<SimpleData name="amenity">public_building</SimpleData>
	</SchemaData></ExtendedData>
      <Point><coordinates>7.4472407,10.5297338</coordinates></Point>
  </Placemark>
  <Placemark>
	<name>Interconntinental Bank</name>
	<ExtendedData><SchemaData schemaUrl="#SELECT">
		<SimpleData name="osm_id">553112148</SimpleData>
		<SimpleData name="amenity">bank</SimpleData>
	</SchemaData></ExtendedData>
      <Point><coordinates>7.4481664,10.5310505</coordinates></Point>
  </Placemark>
  <Placemark>
	<name>Kano Road Central Mosque</name>
	<ExtendedData><SchemaData schemaUrl="#SELECT">
		<SimpleData name="osm_id">554794929</SimpleData>
		<SimpleData name="amenity">place_of_worship</SimpleData>
	</SchemaData></ExtendedData>
      <Point><coordinates>7.4298177,10.5159725</coordinates></Point>
  </Placemark>
  <Placemark>
	<ExtendedData><SchemaData schemaUrl="#SELECT">
		<SimpleData name="osm_id">556974599</SimpleData>
		<SimpleData name="man_made">tower</SimpleData>
	</SchemaData></ExtendedData>
      <Point><coordinates>7.5196251,10.7609182</coordinates></Point>
  </Placemark>
  <Placemark>
	<ExtendedData><SchemaData schemaUrl="#SELECT">
		<SimpleData name="osm_id">556974601</SimpleData>
		<SimpleData name="man_made">tower</SimpleData>
	</SchemaData></ExtendedData>
      <Point><coordinates>7.5196364,10.7605253</coordinates></Point>
  </Placemark>
  <Placemark>
	<ExtendedData><SchemaData schemaUrl="#SELECT">
		<SimpleData name="osm_id">556974602</SimpleData>
		<SimpleData name="man_made">tower</SimpleData>
	</SchemaData></ExtendedData>
      <Point><coordinates>7.5215271,10.7737416</coordinates></Point>
  </Placemark>
  <Placemark>
	<name>Nagarata radio</name>
	<ExtendedData><SchemaData schemaUrl="#SELECT">
		<SimpleData name="osm_id">556979217</SimpleData>
		<SimpleData name="man_made">tower</SimpleData>
	</SchemaData></ExtendedData>
      <Point><coordinates>7.5164295,10.7043202</coordinates></Point>
  </Placemark>
  <Placemark>
	<ExtendedData><SchemaData schemaUrl="#SELECT">
		<SimpleData name="osm_id">556979229</SimpleData>
		<SimpleData name="man_made">tower</SimpleData>
	</SchemaData></ExtendedData>
      <Point><coordinates>7.5391719,10.7940516</coordinates></Point>
  </Placemark>
  <Placemark>
	<name>Conoil</name>
	<ExtendedData><SchemaData schemaUrl="#SELECT">
		<SimpleData name="osm_id">556979231</SimpleData>
		<SimpleData name="amenity">fuel</SimpleData>
	</SchemaData></ExtendedData>
      <Point><coordinates>7.5548758,10.8096956</coordinates></Point>
  </Placemark>
  <Placemark>
	<ExtendedData><SchemaData schemaUrl="#SELECT">
		<SimpleData name="osm_id">556979236</SimpleData>
		<SimpleData name="man_made">tower</SimpleData>
	</SchemaData></ExtendedData>
      <Point><coordinates>7.5573227,10.8100123</coordinates></Point>
  </Placemark>
  <Placemark>
	<ExtendedData><SchemaData schemaUrl="#SELECT">
		<SimpleData name="osm_id">556979237</SimpleData>
		<SimpleData name="man_made">tower</SimpleData>
	</SchemaData></ExtendedData>
      <Point><coordinates>7.5640857,10.8183847</coordinates></Point>
  </Placemark>
  <Placemark>
	<ExtendedData><SchemaData schemaUrl="#SELECT">
		<SimpleData name="osm_id">556979240</SimpleData>
		<SimpleData name="man_made">tower</SimpleData>
	</SchemaData></ExtendedData>
      <Point><coordinates>7.5602738,10.8116767</coordinates></Point>
  </Placemark>
  <Placemark>
	<name>Oceanic Bank</name>
	<ExtendedData><SchemaData schemaUrl="#SELECT">
		<SimpleData name="osm_id">556987898</SimpleData>
		<SimpleData name="amenity">bank</SimpleData>
	</SchemaData></ExtendedData>
      <Point><coordinates>7.4383685,10.5443369</coordinates></Point>
  </Placemark>
  <Placemark>
	<name>Oceanic Bank</name>
	<ExtendedData><SchemaData schemaUrl="#SELECT">
		<SimpleData name="osm_id">556987912</SimpleData>
		<SimpleData name="amenity">bank</SimpleData>
	</SchemaData></ExtendedData>
      <Point><coordinates>7.4444743,10.5790142</coordinates></Point>
  </Placemark>
  <Placemark>
	<name>1 Division Hospital</name>
	<ExtendedData><SchemaData schemaUrl="#SELECT">
		<SimpleData name="osm_id">556987914</SimpleData>
		<SimpleData name="amenity">hospital</SimpleData>
	</SchemaData></ExtendedData>
      <Point><coordinates>7.4494087,10.5906849</coordinates></Point>
  </Placemark>
  <Placemark>
	<name>Nigerian Customs Service</name>
	<ExtendedData><SchemaData schemaUrl="#SELECT">
		<SimpleData name="osm_id">556987916</SimpleData>
		<SimpleData name="amenity">public_building</SimpleData>
	</SchemaData></ExtendedData>
      <Point><coordinates>7.4529711,10.598634</coordinates></Point>
  </Placemark>
  <Placemark>
	<ExtendedData><SchemaData schemaUrl="#SELECT">
		<SimpleData name="osm_id">556987921</SimpleData>
		<SimpleData name="man_made">tower</SimpleData>
	</SchemaData></ExtendedData>
      <Point><coordinates>7.4696284,10.6330748</coordinates></Point>
  </Placemark>
  <Placemark>
	<ExtendedData><SchemaData schemaUrl="#SELECT">
		<SimpleData name="osm_id">556987923</SimpleData>
		<SimpleData name="man_made">tower</SimpleData>
	</SchemaData></ExtendedData>
      <Point><coordinates>7.4698045,10.635912</coordinates></Point>
  </Placemark>
  <Placemark>
	<name>Conoil</name>
	<ExtendedData><SchemaData schemaUrl="#SELECT">
		<SimpleData name="osm_id">556987925</SimpleData>
		<SimpleData name="amenity">fuel</SimpleData>
	</SchemaData></ExtendedData>
      <Point><coordinates>7.4725807,10.6467216</coordinates></Point>
  </Placemark>
  <Placemark>
	<name>Travellers Mosque</name>
	<ExtendedData><SchemaData schemaUrl="#SELECT">
		<SimpleData name="osm_id">556987929</SimpleData>
		<SimpleData name="amenity">place_of_worship</SimpleData>
	</SchemaData></ExtendedData>
      <Point><coordinates>7.4837064,10.6666527</coordinates></Point>
  </Placemark>
  <Placemark>
	<ExtendedData><SchemaData schemaUrl="#SELECT">
		<SimpleData name="osm_id">556993457</SimpleData>
		<SimpleData name="man_made">tower</SimpleData>
	</SchemaData></ExtendedData>
      <Point><coordinates>7.6488501,10.9217546</coordinates></Point>
  </Placemark>
  <Placemark>
	<ExtendedData><SchemaData schemaUrl="#SELECT">
		<SimpleData name="osm_id">556993463</SimpleData>
		<SimpleData name="man_made">tower</SimpleData>
	</SchemaData></ExtendedData>
      <Point><coordinates>7.6478845,10.9223802</coordinates></Point>
  </Placemark>
  <Placemark>
	<ExtendedData><SchemaData schemaUrl="#SELECT">
		<SimpleData name="osm_id">556994256</SimpleData>
		<SimpleData name="man_made">tower</SimpleData>
	</SchemaData></ExtendedData>
      <Point><coordinates>7.6442117,10.977018</coordinates></Point>
  </Placemark>
  <Placemark>
	<name>Texaco</name>
	<ExtendedData><SchemaData schemaUrl="#SELECT">
		<SimpleData name="osm_id">557029725</SimpleData>
		<SimpleData name="amenity">fuel</SimpleData>
	</SchemaData></ExtendedData>
      <Point><coordinates>7.7172724,11.0920611</coordinates></Point>
  </Placemark>
  <Placemark>
	<name>Total</name>
	<ExtendedData><SchemaData schemaUrl="#SELECT">
		<SimpleData name="osm_id">557029726</SimpleData>
		<SimpleData name="amenity">fuel</SimpleData>
	</SchemaData></ExtendedData>
      <Point><coordinates>7.7175002,11.092679</coordinates></Point>
  </Placemark>
  <Placemark>
	<name>Afribank</name>
	<ExtendedData><SchemaData schemaUrl="#SELECT">
		<SimpleData name="osm_id">557029727</SimpleData>
		<SimpleData name="amenity">bank</SimpleData>
	</SchemaData></ExtendedData>
      <Point><coordinates>7.7197646,11.0989514</coordinates></Point>
  </Placemark>
  <Placemark>
	<name>Zenith Bank</name>
	<ExtendedData><SchemaData schemaUrl="#SELECT">
		<SimpleData name="osm_id">557029728</SimpleData>
		<SimpleData name="amenity">bank</SimpleData>
	</SchemaData></ExtendedData>
      <Point><coordinates>7.7200294,11.1003222</coordinates></Point>
  </Placemark>
  <Placemark>
	<name>UBA BAnk</name>
	<ExtendedData><SchemaData schemaUrl="#SELECT">
		<SimpleData name="osm_id">557029729</SimpleData>
		<SimpleData name="amenity">bank</SimpleData>
	</SchemaData></ExtendedData>
      <Point><coordinates>7.7201308,11.1008583</coordinates></Point>
  </Placemark>
  <Placemark>
	<name>Mobil</name>
	<ExtendedData><SchemaData schemaUrl="#SELECT">
		<SimpleData name="osm_id">557029730</SimpleData>
		<SimpleData name="amenity">fuel</SimpleData>
	</SchemaData></ExtendedData>
      <Point><coordinates>7.7200068,11.1025718</coordinates></Point>
  </Placemark>
  <Placemark>
	<name>Unity Bank</name>
	<ExtendedData><SchemaData schemaUrl="#SELECT">
		<SimpleData name="osm_id">557032143</SimpleData>
		<SimpleData name="amenity">bank</SimpleData>
	</SchemaData></ExtendedData>
      <Point><coordinates>7.7223333,11.1043747</coordinates></Point>
  </Placemark>
  <Placemark>
	<name>Texaco</name>
	<ExtendedData><SchemaData schemaUrl="#SELECT">
		<SimpleData name="osm_id">557032145</SimpleData>
		<SimpleData name="amenity">fuel</SimpleData>
	</SchemaData></ExtendedData>
      <Point><coordinates>7.722939,11.1048664</coordinates></Point>
  </Placemark>
  <Placemark>
	<ExtendedData><SchemaData schemaUrl="#SELECT">
		<SimpleData name="osm_id">557032151</SimpleData>
		<SimpleData name="amenity">bus_station</SimpleData>
	</SchemaData></ExtendedData>
      <Point><coordinates>7.7232778,11.1051564</coordinates></Point>
  </Placemark>
  <Placemark>
	<name>Total</name>
	<ExtendedData><SchemaData schemaUrl="#SELECT">
		<SimpleData name="osm_id">557032154</SimpleData>
		<SimpleData name="amenity">fuel</SimpleData>
	</SchemaData></ExtendedData>
      <Point><coordinates>7.7239235,11.1052076</coordinates></Point>
  </Placemark>
  <Placemark>
	<name>Zaria Sharia Court</name>
	<ExtendedData><SchemaData schemaUrl="#SELECT">
		<SimpleData name="osm_id">557608061</SimpleData>
		<SimpleData name="amenity">courthouse</SimpleData>
	</SchemaData></ExtendedData>
      <Point><coordinates>7.7194319,11.107556</coordinates></Point>
  </Placemark>
  <Placemark>
	<ExtendedData><SchemaData schemaUrl="#SELECT">
		<SimpleData name="osm_id">557608065</SimpleData>
		<SimpleData name="man_made">tower</SimpleData>
	</SchemaData></ExtendedData>
      <Point><coordinates>7.7197106,11.1072103</coordinates></Point>
  </Placemark>
  <Placemark>
	<name>Unity Bank</name>
	<ExtendedData><SchemaData schemaUrl="#SELECT">
		<SimpleData name="osm_id">557608067</SimpleData>
		<SimpleData name="amenity">bank</SimpleData>
	</SchemaData></ExtendedData>
      <Point><coordinates>7.7205184,11.1089572</coordinates></Point>
  </Placemark>
  <Placemark>
	<name>Saidu Dange Railway Hospital</name>
	<ExtendedData><SchemaData schemaUrl="#SELECT">
		<SimpleData name="osm_id">557611492</SimpleData>
		<SimpleData name="amenity">hospital</SimpleData>
	</SchemaData></ExtendedData>
      <Point><coordinates>7.7206866,11.1138813</coordinates></Point>
  </Placemark>
  <Placemark>
	<name>Dadi Motor Park, Kwangila</name>
	<ExtendedData><SchemaData schemaUrl="#SELECT">
		<SimpleData name="osm_id">557611495</SimpleData>
		<SimpleData name="amenity">bus_station</SimpleData>
	</SchemaData></ExtendedData>
      <Point><coordinates>7.7048463,11.1294461</coordinates></Point>
  </Placemark>
  <Placemark>
	<name>Aifass Motel</name>
	<ExtendedData><SchemaData schemaUrl="#SELECT">
		<SimpleData name="osm_id">557611498</SimpleData>
		<SimpleData name="tourism">hotel</SimpleData>
	</SchemaData></ExtendedData>
      <Point><coordinates>7.7136445,11.1246225</coordinates></Point>
  </Placemark>
  <Placemark>
	<name>Zaria Hotel</name>
	<ExtendedData><SchemaData schemaUrl="#SELECT">
		<SimpleData name="osm_id">557612376</SimpleData>
		<SimpleData name="tourism">hotel</SimpleData>
	</SchemaData></ExtendedData>
      <Point><coordinates>7.6997871,11.1313512</coordinates></Point>
  </Placemark>
  <Placemark>
	<name>Mobil</name>
	<ExtendedData><SchemaData schemaUrl="#SELECT">
		<SimpleData name="osm_id">557612378</SimpleData>
		<SimpleData name="amenity">fuel</SimpleData>
	</SchemaData></ExtendedData>
      <Point><coordinates>7.7029086,11.1297472</coordinates></Point>
  </Placemark>
  <Placemark>
	<name>UBA Bank</name>
	<ExtendedData><SchemaData schemaUrl="#SELECT">
		<SimpleData name="osm_id">557619580</SimpleData>
		<SimpleData name="amenity">bank</SimpleData>
	</SchemaData></ExtendedData>
      <Point><coordinates>7.7151965,11.1221352</coordinates></Point>
  </Placemark>
  <Placemark>
	<ExtendedData><SchemaData schemaUrl="#SELECT">
		<SimpleData name="osm_id">557628988</SimpleData>
		<SimpleData name="amenity">bank</SimpleData>
	</SchemaData></ExtendedData>
      <Point><coordinates>7.7221743,11.1034556</coordinates></Point>
  </Placemark>
  <Placemark>
	<ExtendedData><SchemaData schemaUrl="#SELECT">
		<SimpleData name="osm_id">557628989</SimpleData>
		<SimpleData name="amenity">bank</SimpleData>
	</SchemaData></ExtendedData>
      <Point><coordinates>7.7225499,11.103317</coordinates></Point>
  </Placemark>
  <Placemark>
	<name>Institute Of Child Health, ABU Teaching Hospital</name>
	<ExtendedData><SchemaData schemaUrl="#SELECT">
		<SimpleData name="osm_id">557647653</SimpleData>
		<SimpleData name="amenity">hospital</SimpleData>
	</SchemaData></ExtendedData>
      <Point><coordinates>7.7170078,11.0668441</coordinates></Point>
  </Placemark>
  <Placemark>
	<name>Zaria Firestation</name>
	<ExtendedData><SchemaData schemaUrl="#SELECT">
		<SimpleData name="osm_id">557647660</SimpleData>
		<SimpleData name="amenity">fire_station</SimpleData>
	</SchemaData></ExtendedData>
      <Point><coordinates>7.7091497,11.0808375</coordinates></Point>
  </Placemark>
  <Placemark>
	<ExtendedData><SchemaData schemaUrl="#SELECT">
		<SimpleData name="osm_id">557647662</SimpleData>
		<SimpleData name="amenity">fuel</SimpleData>
	</SchemaData></ExtendedData>
      <Point><coordinates>7.7075545,11.0797819</coordinates></Point>
  </Placemark>
  <Placemark>
	<name>Mobil</name>
	<ExtendedData><SchemaData schemaUrl="#SELECT">
		<SimpleData name="osm_id">557647672</SimpleData>
		<SimpleData name="amenity">fuel</SimpleData>
	</SchemaData></ExtendedData>
      <Point><coordinates>7.7485786,11.0783108</coordinates></Point>
  </Placemark>
  <Placemark>
	<ExtendedData><SchemaData schemaUrl="#SELECT">
		<SimpleData name="osm_id">557649610</SimpleData>
		<SimpleData name="man_made">water_tower</SimpleData>
	</SchemaData></ExtendedData>
      <Point><coordinates>7.7051879,11.0886826</coordinates></Point>
  </Placemark>
  <Placemark>
	<name>Gaskia Industries</name>
	<ExtendedData><SchemaData schemaUrl="#SELECT">
		<SimpleData name="osm_id">557649611</SimpleData>
		<SimpleData name="man_made">works</SimpleData>
	</SchemaData></ExtendedData>
      <Point><coordinates>7.7094104,11.0921639</coordinates></Point>
  </Placemark>
  <Placemark>
	<name>Macmillan Publishing</name>
	<ExtendedData><SchemaData schemaUrl="#SELECT">
		<SimpleData name="osm_id">557649612</SimpleData>
		<SimpleData name="man_made">works</SimpleData>
	</SchemaData></ExtendedData>
      <Point><coordinates>7.7098876,11.0923228</coordinates></Point>
  </Placemark>
  <Placemark>
	<name>Zaria Pharmacutical company</name>
	<ExtendedData><SchemaData schemaUrl="#SELECT">
		<SimpleData name="osm_id">557661040</SimpleData>
		<SimpleData name="man_made">works</SimpleData>
	</SchemaData></ExtendedData>
      <Point><coordinates>7.7434197,11.0819136</coordinates></Point>
  </Placemark>
  <Placemark>
	<name>Sunseed Oil</name>
	<ExtendedData><SchemaData schemaUrl="#SELECT">
		<SimpleData name="osm_id">557661045</SimpleData>
		<SimpleData name="man_made">works</SimpleData>
	</SchemaData></ExtendedData>
      <Point><coordinates>7.7495986,11.0796699</coordinates></Point>
  </Placemark>
  <Placemark>
	<name>NDA Officers Mess</name>
	<ExtendedData><SchemaData schemaUrl="#SELECT">
		<SimpleData name="osm_id">557707059</SimpleData>
		<SimpleData name="amenity">pub</SimpleData>
	</SchemaData></ExtendedData>
      <Point><coordinates>7.4466199,10.5560192</coordinates></Point>
  </Placemark>
  <Placemark>
	<name>Gombe Jewel Hotel</name>
	<ExtendedData><SchemaData schemaUrl="#SELECT">
		<SimpleData name="osm_id">557707068</SimpleData>
		<SimpleData name="tourism">hotel</SimpleData>
	</SchemaData></ExtendedData>
      <Point><coordinates>7.4460081,10.5580057</coordinates></Point>
  </Placemark>
  <Placemark>
	<name>Taraba State Government Offices</name>
	<ExtendedData><SchemaData schemaUrl="#SELECT">
		<SimpleData name="osm_id">557708738</SimpleData>
		<SimpleData name="amenity">public_building</SimpleData>
	</SchemaData></ExtendedData>
      <Point><coordinates>7.4513692,10.5565522</coordinates></Point>
  </Placemark>
  <Placemark>
	<ExtendedData><SchemaData schemaUrl="#SELECT">
		<SimpleData name="osm_id">557713193</SimpleData>
		<SimpleData name="amenity">police</SimpleData>
	</SchemaData></ExtendedData>
      <Point><coordinates>7.4536274,10.5575825</coordinates></Point>
  </Placemark>
  <Placemark>
	<ExtendedData><SchemaData schemaUrl="#SELECT">
		<SimpleData name="osm_id">557714519</SimpleData>
		<SimpleData name="man_made">tower</SimpleData>
	</SchemaData></ExtendedData>
      <Point><coordinates>7.4508314,10.5668684</coordinates></Point>
  </Placemark>
  <Placemark>
	<name>Fin Bank</name>
	<ExtendedData><SchemaData schemaUrl="#SELECT">
		<SimpleData name="osm_id">557725197</SimpleData>
		<SimpleData name="amenity">bank</SimpleData>
	</SchemaData></ExtendedData>
      <Point><coordinates>7.4415164,10.5472261</coordinates></Point>
  </Placemark>
  <Placemark>
	<name>National Teachers Institute</name>
	<ExtendedData><SchemaData schemaUrl="#SELECT">
		<SimpleData name="osm_id">557728663</SimpleData>
		<SimpleData name="amenity">college</SimpleData>
	</SchemaData></ExtendedData>
      <Point><coordinates>7.4698018,10.6203744</coordinates></Point>
  </Placemark>
  <Placemark>
	<name>National Open University</name>
	<ExtendedData><SchemaData schemaUrl="#SELECT">
		<SimpleData name="osm_id">557728665</SimpleData>
		<SimpleData name="amenity">college</SimpleData>
	</SchemaData></ExtendedData>
      <Point><coordinates>7.4684833,10.6138093</coordinates></Point>
  </Placemark>
  <Placemark>
	<name>Oando</name>
	<ExtendedData><SchemaData schemaUrl="#SELECT">
		<SimpleData name="osm_id">557743328</SimpleData>
		<SimpleData name="amenity">fuel</SimpleData>
	</SchemaData></ExtendedData>
      <Point><coordinates>7.468917,10.6361418</coordinates></Point>
  </Placemark>
  <Placemark>
	<ExtendedData><SchemaData schemaUrl="#SELECT">
		<SimpleData name="osm_id">557743331</SimpleData>
		<SimpleData name="amenity">fuel</SimpleData>
	</SchemaData></ExtendedData>
      <Point><coordinates>7.4729392,10.6493244</coordinates></Point>
  </Placemark>
  <Placemark>
	<name>Shades Resort</name>
	<ExtendedData><SchemaData schemaUrl="#SELECT">
		<SimpleData name="osm_id">558754974</SimpleData>
		<SimpleData name="tourism">guest_house</SimpleData>
	</SchemaData></ExtendedData>
      <Point><coordinates>7.4546334,10.5449526</coordinates></Point>
  </Placemark>
  <Placemark>
	<ExtendedData><SchemaData schemaUrl="#SELECT">
		<SimpleData name="osm_id">558756582</SimpleData>
		<SimpleData name="man_made">tower</SimpleData>
	</SchemaData></ExtendedData>
      <Point><coordinates>7.4458523,10.5427455</coordinates></Point>
  </Placemark>
  <Placemark>
	<name>Mr Bigs</name>
	<ExtendedData><SchemaData schemaUrl="#SELECT">
		<SimpleData name="osm_id">559394339</SimpleData>
		<SimpleData name="amenity">fast_food</SimpleData>
	</SchemaData></ExtendedData>
      <Point><coordinates>7.452793,10.5476323</coordinates></Point>
  </Placemark>
  <Placemark>
	<name>Union Bank</name>
	<ExtendedData><SchemaData schemaUrl="#SELECT">
		<SimpleData name="osm_id">559427747</SimpleData>
		<SimpleData name="amenity">bank</SimpleData>
	</SchemaData></ExtendedData>
      <Point><coordinates>7.4305613,10.5298517</coordinates></Point>
  </Placemark>
  <Placemark>
	<name>Aso Motel</name>
	<ExtendedData><SchemaData schemaUrl="#SELECT">
		<SimpleData name="osm_id">559427757</SimpleData>
		<SimpleData name="tourism">hotel</SimpleData>
		<SimpleData name="addr:housenumber">14</SimpleData>
		<SimpleData name="addr:street">Muhammadu Buhari Way</SimpleData>
		<SimpleData name="addr:city">Kaduna</SimpleData>
	</SchemaData></ExtendedData>
      <Point><coordinates>7.4353402,10.5291331</coordinates></Point>
  </Placemark>
  <Placemark>
	<name>Television Motor Park Kaduna</name>
	<ExtendedData><SchemaData schemaUrl="#SELECT">
		<SimpleData name="osm_id">559470468</SimpleData>
		<SimpleData name="amenity">bus_station</SimpleData>
	</SchemaData></ExtendedData>
      <Point><coordinates>7.4248613,10.4540399</coordinates></Point>
  </Placemark>
  <Placemark>
	<name>Kaduna Rugby Club</name>
	<ExtendedData><SchemaData schemaUrl="#SELECT">
		<SimpleData name="osm_id">559473222</SimpleData>
		<SimpleData name="amenity">pub</SimpleData>
	</SchemaData></ExtendedData>
      <Point><coordinates>7.4396831,10.5308693</coordinates></Point>
  </Placemark>
  <Placemark>
	<name>Kaduna Secretariat</name>
	<ExtendedData><SchemaData schemaUrl="#SELECT">
		<SimpleData name="osm_id">559475188</SimpleData>
		<SimpleData name="amenity">public_building</SimpleData>
	</SchemaData></ExtendedData>
      <Point><coordinates>7.4397736,10.5222972</coordinates></Point>
  </Placemark>
  <Placemark>
	<ExtendedData><SchemaData schemaUrl="#SELECT">
		<SimpleData name="osm_id">559760263</SimpleData>
		<SimpleData name="man_made">tower</SimpleData>
	</SchemaData></ExtendedData>
      <Point><coordinates>7.4344602,10.5323193</coordinates></Point>
  </Placemark>
  <Placemark>
	<name>DITV Kaduna, Alheri Radio</name>
	<ExtendedData><SchemaData schemaUrl="#SELECT">
		<SimpleData name="osm_id">559760264</SimpleData>
		<SimpleData name="man_made">works</SimpleData>
	</SchemaData></ExtendedData>
      <Point><coordinates>7.4343873,10.5326456</coordinates></Point>
  </Placemark>
  <Placemark>
	<name>Arewa Consultative Forum</name>
	<ExtendedData><SchemaData schemaUrl="#SELECT">
		<SimpleData name="osm_id">559760267</SimpleData>
		<SimpleData name="amenity">public_building</SimpleData>
		<SimpleData name="addr:housenumber">11A</SimpleData>
		<SimpleData name="addr:street">Sokoto Road</SimpleData>
	</SchemaData></ExtendedData>
      <Point><coordinates>7.435369,10.5318116</coordinates></Point>
  </Placemark>
  <Placemark>
	<name>Headquaters Nigerian Air Force Training Command</name>
	<ExtendedData><SchemaData schemaUrl="#SELECT">
		<SimpleData name="osm_id">559760909</SimpleData>
		<SimpleData name="amenity">public_building</SimpleData>
	</SchemaData></ExtendedData>
      <Point><coordinates>7.4370247,10.5322562</coordinates></Point>
  </Placemark>
  <Placemark>
	<ExtendedData><SchemaData schemaUrl="#SELECT">
		<SimpleData name="osm_id">559767928</SimpleData>
		<SimpleData name="amenity">bank</SimpleData>
	</SchemaData></ExtendedData>
      <Point><coordinates>7.4316828,10.5415325</coordinates></Point>
  </Placemark>
  <Placemark>
	<name>Ostrich Bakery</name>
	<ExtendedData><SchemaData schemaUrl="#SELECT">
		<SimpleData name="osm_id">559767929</SimpleData>
		<SimpleData name="shop">bakery</SimpleData>
	</SchemaData></ExtendedData>
      <Point><coordinates>7.4521461,10.5483703</coordinates></Point>
  </Placemark>
  <Placemark>
	<ExtendedData><SchemaData schemaUrl="#SELECT">
		<SimpleData name="osm_id">560941625</SimpleData>
		<SimpleData name="amenity">fast_food</SimpleData>
	</SchemaData></ExtendedData>
      <Point><coordinates>7.4404671,10.5162298</coordinates></Point>
  </Placemark>
  <Placemark>
	<name>Sweeties</name>
	<ExtendedData><SchemaData schemaUrl="#SELECT">
		<SimpleData name="osm_id">560941626</SimpleData>
		<SimpleData name="amenity">fast_food</SimpleData>
	</SchemaData></ExtendedData>
      <Point><coordinates>7.4405553,10.51552</coordinates></Point>
  </Placemark>
  <Placemark>
	<name>NITEL</name>
	<ExtendedData><SchemaData schemaUrl="#SELECT">
		<SimpleData name="osm_id">560941627</SimpleData>
		<SimpleData name="man_made">tower</SimpleData>
	</SchemaData></ExtendedData>
      <Point><coordinates>7.441843,10.5268801</coordinates></Point>
  </Placemark>
  <Placemark>
	<name>St Gerards Catholic Hospital</name>
	<ExtendedData><SchemaData schemaUrl="#SELECT">
		<SimpleData name="osm_id">560945782</SimpleData>
		<SimpleData name="amenity">hospital</SimpleData>
	</SchemaData></ExtendedData>
      <Point><coordinates>7.4209643,10.467021</coordinates></Point>
  </Placemark>
  <Placemark>
	<name>Primepower Generators</name>
	<ExtendedData><SchemaData schemaUrl="#SELECT">
		<SimpleData name="osm_id">560945785</SimpleData>
		<SimpleData name="man_made">works</SimpleData>
	</SchemaData></ExtendedData>
      <Point><coordinates>7.4186804,10.4808788</coordinates></Point>
  </Placemark>
  <Placemark>
	<name>ABC Bus Transport</name>
	<ExtendedData><SchemaData schemaUrl="#SELECT">
		<SimpleData name="osm_id">560945786</SimpleData>
		<SimpleData name="shop">travel_agency</SimpleData>
	</SchemaData></ExtendedData>
      <Point><coordinates>7.4191705,10.4970308</coordinates></Point>
  </Placemark>
  <Placemark>
	<name>ASD Motors</name>
	<ExtendedData><SchemaData schemaUrl="#SELECT">
		<SimpleData name="osm_id">560945787</SimpleData>
		<SimpleData name="shop">car</SimpleData>
	</SchemaData></ExtendedData>
      <Point><coordinates>7.4388423,10.5045562</coordinates></Point>
  </Placemark>
  <Placemark>
	<ExtendedData><SchemaData schemaUrl="#SELECT">
		<SimpleData name="osm_id">560949027</SimpleData>
		<SimpleData name="man_made">tower</SimpleData>
	</SchemaData></ExtendedData>
      <Point><coordinates>7.3783266,10.3079373</coordinates></Point>
  </Placemark>
  <Placemark>
	<name>Oando</name>
	<ExtendedData><SchemaData schemaUrl="#SELECT">
		<SimpleData name="osm_id">560952690</SimpleData>
		<SimpleData name="amenity">fuel</SimpleData>
	</SchemaData></ExtendedData>
      <Point><coordinates>7.4039374,10.434094</coordinates></Point>
  </Placemark>
  <Placemark>
	<name>Sharon</name>
	<ExtendedData><SchemaData schemaUrl="#SELECT">
		<SimpleData name="osm_id">560952695</SimpleData>
		<SimpleData name="amenity">fuel</SimpleData>
	</SchemaData></ExtendedData>
      <Point><coordinates>7.4037104,10.432746</coordinates></Point>
  </Placemark>
  <Placemark>
	<name>Bukkateen</name>
	<ExtendedData><SchemaData schemaUrl="#SELECT">
		<SimpleData name="osm_id">560983277</SimpleData>
		<SimpleData name="amenity">restaurant</SimpleData>
	</SchemaData></ExtendedData>
      <Point><coordinates>7.4654403,9.0405615</coordinates></Point>
  </Placemark>
  <Placemark>
	<name>AP</name>
	<ExtendedData><SchemaData schemaUrl="#SELECT">
		<SimpleData name="osm_id">560984980</SimpleData>
		<SimpleData name="amenity">fuel</SimpleData>
	</SchemaData></ExtendedData>
      <Point><coordinates>7.496197,9.078351</coordinates></Point>
  </Placemark>
  <Placemark>
	<name>Summerset Hotel</name>
	<ExtendedData><SchemaData schemaUrl="#SELECT">
		<SimpleData name="osm_id">560986753</SimpleData>
		<SimpleData name="tourism">hotel</SimpleData>
	</SchemaData></ExtendedData>
      <Point><coordinates>7.4971161,9.0768318</coordinates></Point>
  </Placemark>
  <Placemark>
	<name>Zenith Bank</name>
	<ExtendedData><SchemaData schemaUrl="#SELECT">
		<SimpleData name="osm_id">560986754</SimpleData>
		<SimpleData name="amenity">bank</SimpleData>
	</SchemaData></ExtendedData>
      <Point><coordinates>7.4970975,9.0753363</coordinates></Point>
  </Placemark>
  <Placemark>
	<name>DOMINION CHILDREN ACADEMY</name>
	<ExtendedData><SchemaData schemaUrl="#SELECT">
		<SimpleData name="osm_id">569715238</SimpleData>
		<SimpleData name="amenity">school</SimpleData>
	</SchemaData></ExtendedData>
      <Point><coordinates>5.5816113,6.3608305</coordinates></Point>
  </Placemark>
  <Placemark>
	<name>Mr Biggs</name>
	<ExtendedData><SchemaData schemaUrl="#SELECT">
		<SimpleData name="osm_id">639043269</SimpleData>
		<SimpleData name="amenity">fast_food</SimpleData>
	</SchemaData></ExtendedData>
      <Point><coordinates>3.3565432,6.4898849</coordinates></Point>
  </Placemark>
  <Placemark>
	<name>Bode Thomas Police Station</name>
	<ExtendedData><SchemaData schemaUrl="#SELECT">
		<SimpleData name="osm_id">639043270</SimpleData>
		<SimpleData name="amenity">police</SimpleData>
		<SimpleData name="shop">doityourself</SimpleData>
	</SchemaData></ExtendedData>
      <Point><coordinates>3.3572033,6.4894158</coordinates></Point>
  </Placemark>
  <Placemark>
	<name>GT Bank</name>
	<ExtendedData><SchemaData schemaUrl="#SELECT">
		<SimpleData name="osm_id">639043695</SimpleData>
		<SimpleData name="amenity">bank</SimpleData>
	</SchemaData></ExtendedData>
      <Point><coordinates>3.3566774,6.4895627</coordinates></Point>
  </Placemark>
  <Placemark>
	<ExtendedData><SchemaData schemaUrl="#SELECT">
		<SimpleData name="osm_id">639049800</SimpleData>
		<SimpleData name="amenity">bank</SimpleData>
	</SchemaData></ExtendedData>
      <Point><coordinates>3.3565595,6.4895757</coordinates></Point>
  </Placemark>
  <Placemark>
	<name>Surulere General Hospital</name>
	<ExtendedData><SchemaData schemaUrl="#SELECT">
		<SimpleData name="osm_id">765394844</SimpleData>
		<SimpleData name="amenity">hospital</SimpleData>
	</SchemaData></ExtendedData>
      <Point><coordinates>3.357255,6.5099363</coordinates></Point>
  </Placemark>
  <Placemark>
	<name>Ahmadu Bello University Teaching Hospital ( Samaru )</name>
	<ExtendedData><SchemaData schemaUrl="#SELECT">
		<SimpleData name="osm_id">776296517</SimpleData>
		<SimpleData name="amenity">hospital</SimpleData>
	</SchemaData></ExtendedData>
      <Point><coordinates>7.6051087,11.1738996</coordinates></Point>
  </Placemark>
  <Placemark>
	<name>Деревня национальных поделок</name>
	<ExtendedData><SchemaData schemaUrl="#SELECT">
		<SimpleData name="osm_id">888958092</SimpleData>
		<SimpleData name="tourism">attraction</SimpleData>
	</SchemaData></ExtendedData>
      <Point><coordinates>7.4845071,9.0661584</coordinates></Point>
  </Placemark>
  <Placemark>
	<ExtendedData><SchemaData schemaUrl="#SELECT">
		<SimpleData name="osm_id">888961886</SimpleData>
		<SimpleData name="amenity">parking</SimpleData>
	</SchemaData></ExtendedData>
      <Point><coordinates>7.4860562,9.0678031</coordinates></Point>
  </Placemark>
  <Placemark>
	<name>Mr Biggs</name>
	<ExtendedData><SchemaData schemaUrl="#SELECT">
		<SimpleData name="osm_id">889008138</SimpleData>
		<SimpleData name="amenity">fast_food</SimpleData>
	</SchemaData></ExtendedData>
      <Point><coordinates>7.4176986,9.0619204</coordinates></Point>
  </Placemark>
  <Placemark>
	<ExtendedData><SchemaData schemaUrl="#SELECT">
		<SimpleData name="osm_id">889020829</SimpleData>
		<SimpleData name="amenity">parking</SimpleData>
	</SchemaData></ExtendedData>
      <Point><coordinates>7.4847817,9.0655651</coordinates></Point>
  </Placemark>
  <Placemark>
	<name>Stalls</name>
	<ExtendedData><SchemaData schemaUrl="#SELECT">
		<SimpleData name="osm_id">889062199</SimpleData>
		<SimpleData name="shop">convenience</SimpleData>
	</SchemaData></ExtendedData>
      <Point><coordinates>7.4029158,9.0580872</coordinates></Point>
  </Placemark>
  <Placemark>
	<ExtendedData><SchemaData schemaUrl="#SELECT">
		<SimpleData name="osm_id">889066154</SimpleData>
		<SimpleData name="amenity">bank</SimpleData>
	</SchemaData></ExtendedData>
      <Point><coordinates>7.4041174,9.0670929</coordinates></Point>
  </Placemark>
  <Placemark>
	<ExtendedData><SchemaData schemaUrl="#SELECT">
		<SimpleData name="osm_id">889066848</SimpleData>
		<SimpleData name="amenity">atm</SimpleData>
	</SchemaData></ExtendedData>
      <Point><coordinates>7.4042354,9.0671035</coordinates></Point>
  </Placemark>
  <Placemark>
	<name>Glisten Academy</name>
	<ExtendedData><SchemaData schemaUrl="#SELECT">
		<SimpleData name="osm_id">889070557</SimpleData>
		<SimpleData name="amenity">school</SimpleData>
	</SchemaData></ExtendedData>
      <Point><coordinates>7.4023209,9.0779206</coordinates></Point>
  </Placemark>
  <Placemark>
	<name>Lasu Museum</name>
	<ExtendedData><SchemaData schemaUrl="#SELECT">
		<SimpleData name="osm_id">889227741</SimpleData>
		<SimpleData name="tourism">museum</SimpleData>
	</SchemaData></ExtendedData>
      <Point><coordinates>3.330284,6.62895</coordinates></Point>
  </Placemark>
  <Placemark>
	<ExtendedData><SchemaData schemaUrl="#SELECT">
		<SimpleData name="osm_id">889256386</SimpleData>
		<SimpleData name="amenity">fuel</SimpleData>
	</SchemaData></ExtendedData>
      <Point><coordinates>3.1432085,6.4946016</coordinates></Point>
  </Placemark>
  <Placemark>
	<ExtendedData><SchemaData schemaUrl="#SELECT">
		<SimpleData name="osm_id">889265494</SimpleData>
		<SimpleData name="amenity">fuel</SimpleData>
	</SchemaData></ExtendedData>
      <Point><coordinates>3.0497728,6.4841702</coordinates></Point>
  </Placemark>
  <Placemark>
	<ExtendedData><SchemaData schemaUrl="#SELECT">
		<SimpleData name="osm_id">889265842</SimpleData>
		<SimpleData name="amenity">fuel</SimpleData>
	</SchemaData></ExtendedData>
      <Point><coordinates>3.0319076,6.4827049</coordinates></Point>
  </Placemark>
  <Placemark>
	<name>Meals on the Move</name>
	<ExtendedData><SchemaData schemaUrl="#SELECT">
		<SimpleData name="osm_id">889266159</SimpleData>
		<SimpleData name="amenity">fast_food</SimpleData>
	</SchemaData></ExtendedData>
      <Point><coordinates>3.0322295,6.4829394</coordinates></Point>
  </Placemark>
  <Placemark>
	<name>Zenith Bank</name>
	<ExtendedData><SchemaData schemaUrl="#SELECT">
		<SimpleData name="osm_id">889290383</SimpleData>
		<SimpleData name="amenity">bank</SimpleData>
	</SchemaData></ExtendedData>
      <Point><coordinates>2.8786998,6.4182916</coordinates></Point>
  </Placemark>
  <Placemark>
	<name>Topo Community Hall</name>
	<ExtendedData><SchemaData schemaUrl="#SELECT">
		<SimpleData name="osm_id">889296106</SimpleData>
		<SimpleData name="amenity">public_building</SimpleData>
	</SchemaData></ExtendedData>
      <Point><coordinates>2.9327946,6.4097623</coordinates></Point>
  </Placemark>
  <Placemark>
	<name>Stalls</name>
	<ExtendedData><SchemaData schemaUrl="#SELECT">
		<SimpleData name="osm_id">889313935</SimpleData>
		<SimpleData name="shop">convenience</SimpleData>
	</SchemaData></ExtendedData>
      <Point><coordinates>2.9387322,6.4136752</coordinates></Point>
  </Placemark>
  <Placemark>
	<name>Church of God in Akarakumoh</name>
	<ExtendedData><SchemaData schemaUrl="#SELECT">
		<SimpleData name="osm_id">889331470</SimpleData>
		<SimpleData name="amenity">place_of_worship</SimpleData>
	</SchemaData></ExtendedData>
      <Point><coordinates>2.9594722,6.4113298</coordinates></Point>
  </Placemark>
  <Placemark>
	<ExtendedData><SchemaData schemaUrl="#SELECT">
		<SimpleData name="osm_id">889340506</SimpleData>
		<SimpleData name="amenity">fuel</SimpleData>
	</SchemaData></ExtendedData>
      <Point><coordinates>2.9522705,6.412396</coordinates></Point>
  </Placemark>
  <Placemark>
	<ExtendedData><SchemaData schemaUrl="#SELECT">
		<SimpleData name="osm_id">889340778</SimpleData>
		<SimpleData name="amenity">hospital</SimpleData>
	</SchemaData></ExtendedData>
      <Point><coordinates>2.8973067,6.4150081</coordinates></Point>
  </Placemark>
  <Placemark>
	<name>Former Slave Market</name>
	<ExtendedData><SchemaData schemaUrl="#SELECT">
		<SimpleData name="osm_id">889344012</SimpleData>
		<SimpleData name="tourism">museum</SimpleData>
	</SchemaData></ExtendedData>
      <Point><coordinates>2.8812027,6.4172577</coordinates></Point>
  </Placemark>
  <Placemark>
	<name>Church of God in Igbede</name>
	<ExtendedData><SchemaData schemaUrl="#SELECT">
		<SimpleData name="osm_id">889370796</SimpleData>
		<SimpleData name="amenity">place_of_worship</SimpleData>
	</SchemaData></ExtendedData>
      <Point><coordinates>3.1723336,6.4515809</coordinates></Point>
  </Placemark>
  <Placemark>
	<name>Church of God in Ojo</name>
	<ExtendedData><SchemaData schemaUrl="#SELECT">
		<SimpleData name="osm_id">889371240</SimpleData>
		<SimpleData name="amenity">place_of_worship</SimpleData>
	</SchemaData></ExtendedData>
      <Point><coordinates>3.1733207,6.4566554</coordinates></Point>
  </Placemark>
  <Placemark>
	<ExtendedData><SchemaData schemaUrl="#SELECT">
		<SimpleData name="osm_id">889387195</SimpleData>
		<SimpleData name="amenity">fast_food</SimpleData>
	</SchemaData></ExtendedData>
      <Point><coordinates>2.8936093,6.4278178</coordinates></Point>
  </Placemark>
  <Placemark>
	<ExtendedData><SchemaData schemaUrl="#SELECT">
		<SimpleData name="osm_id">889387443</SimpleData>
		<SimpleData name="amenity">fuel</SimpleData>
	</SchemaData></ExtendedData>
      <Point><coordinates>2.8933518,6.4278711</coordinates></Point>
  </Placemark>
  <Placemark>
	<ExtendedData><SchemaData schemaUrl="#SELECT">
		<SimpleData name="osm_id">889417284</SimpleData>
		<SimpleData name="amenity">fuel</SimpleData>
	</SchemaData></ExtendedData>
      <Point><coordinates>3.1639307,6.4585202</coordinates></Point>
  </Placemark>
  <Placemark>
	<ExtendedData><SchemaData schemaUrl="#SELECT">
		<SimpleData name="osm_id">893689255</SimpleData>
		<SimpleData name="shop">electronics</SimpleData>
	</SchemaData></ExtendedData>
      <Point><coordinates>7.4819961,9.0687641</coordinates></Point>
  </Placemark>
  <Placemark>
	<name>Parklande Specialist Hospital</name>
	<ExtendedData><SchemaData schemaUrl="#SELECT">
		<SimpleData name="osm_id">928544939</SimpleData>
		<SimpleData name="amenity">hospital</SimpleData>
	</SchemaData></ExtendedData>
      <Point><coordinates>3.3612431,6.4956585</coordinates></Point>
  </Placemark>
  <Placemark>
	<name>Ahmadu Bello Campus Fire Station</name>
	<ExtendedData><SchemaData schemaUrl="#SELECT">
		<SimpleData name="osm_id">956517522</SimpleData>
		<SimpleData name="amenity">fire_station</SimpleData>
	</SchemaData></ExtendedData>
      <Point><coordinates>7.6504559,11.1541994</coordinates></Point>
  </Placemark>
  <Placemark>
	<name>Arisekola Mosque</name>
	<ExtendedData><SchemaData schemaUrl="#SELECT">
		<SimpleData name="osm_id">959812250</SimpleData>
		<SimpleData name="amenity">place_of_worship</SimpleData>
	</SchemaData></ExtendedData>
      <Point><coordinates>3.9315637,7.4034562</coordinates></Point>
  </Placemark>
  <Placemark>
	<name>Testing ground Police Barack</name>
	<ExtendedData><SchemaData schemaUrl="#SELECT">
		<SimpleData name="osm_id">959812792</SimpleData>
		<SimpleData name="amenity">police</SimpleData>
	</SchemaData></ExtendedData>
      <Point><coordinates>3.9296969,7.4034669</coordinates></Point>
  </Placemark>
  <Placemark>
	<name>Army Children School Iwo-Road</name>
	<ExtendedData><SchemaData schemaUrl="#SELECT">
		<SimpleData name="osm_id">959814020</SimpleData>
		<SimpleData name="amenity">school</SimpleData>
	</SchemaData></ExtendedData>
      <Point><coordinates>3.9362737,7.4054032</coordinates></Point>
  </Placemark>
  <Placemark>
	<name>Bishop Philip Academy</name>
	<ExtendedData><SchemaData schemaUrl="#SELECT">
		<SimpleData name="osm_id">959819185</SimpleData>
		<SimpleData name="amenity">school</SimpleData>
	</SchemaData></ExtendedData>
      <Point><coordinates>3.9462407,7.4054458</coordinates></Point>
  </Placemark>
  <Placemark>
	<name>Iwo-Road Baptist Church</name>
	<ExtendedData><SchemaData schemaUrl="#SELECT">
		<SimpleData name="osm_id">959822332</SimpleData>
		<SimpleData name="amenity">place_of_worship</SimpleData>
	</SchemaData></ExtendedData>
      <Point><coordinates>3.9494487,7.4108293</coordinates></Point>
  </Placemark>
  <Placemark>
	<name>Festac</name>
	<ExtendedData><SchemaData schemaUrl="#SELECT">
		<SimpleData name="osm_id">959849752</SimpleData>
		<SimpleData name="tourism">museum</SimpleData>
	</SchemaData></ExtendedData>
      <Point><coordinates>3.8956865,7.4026583</coordinates></Point>
  </Placemark>
  <Placemark>
	<name>Alafia Hospital</name>
	<ExtendedData><SchemaData schemaUrl="#SELECT">
		<SimpleData name="osm_id">959852212</SimpleData>
		<SimpleData name="amenity">hospital</SimpleData>
	</SchemaData></ExtendedData>
      <Point><coordinates>3.8882299,7.3992111</coordinates></Point>
  </Placemark>
  <Placemark>
	<name>University of Benin</name>
	<ExtendedData><SchemaData schemaUrl="#SELECT">
		<SimpleData name="osm_id">979903491</SimpleData>
		<SimpleData name="amenity">university</SimpleData>
	</SchemaData></ExtendedData>
      <Point><coordinates>5.600647,6.3343603</coordinates></Point>
  </Placemark>
  <Placemark>
	<name>Garrick Memorial Secondary School</name>
	<ExtendedData><SchemaData schemaUrl="#SELECT">
		<SimpleData name="osm_id">979962392</SimpleData>
		<SimpleData name="amenity">school</SimpleData>
	</SchemaData></ExtendedData>
      <Point><coordinates>5.6020053,6.331469</coordinates></Point>
  </Placemark>
  <Placemark>
	<name>Edo College</name>
	<ExtendedData><SchemaData schemaUrl="#SELECT">
		<SimpleData name="osm_id">979962730</SimpleData>
		<SimpleData name="amenity">college</SimpleData>
	</SchemaData></ExtendedData>
      <Point><coordinates>5.6468595,6.3336051</coordinates></Point>
  </Placemark>
  <Placemark>
	<name>Edo Line</name>
	<ExtendedData><SchemaData schemaUrl="#SELECT">
		<SimpleData name="osm_id">981284618</SimpleData>
		<SimpleData name="amenity">bus_station</SimpleData>
	</SchemaData></ExtendedData>
      <Point><coordinates>5.6282402,6.3435934</coordinates></Point>
  </Placemark>
  <Placemark>
	<ExtendedData><SchemaData schemaUrl="#SELECT">
		<SimpleData name="osm_id">1017987047</SimpleData>
		<SimpleData name="amenity">pub</SimpleData>
	</SchemaData></ExtendedData>
      <Point><coordinates>7.4522786,10.5033368</coordinates></Point>
  </Placemark>
  <Placemark>
	<name>Access Hotel</name>
	<ExtendedData><SchemaData schemaUrl="#SELECT">
		<SimpleData name="osm_id">1191103906</SimpleData>
		<SimpleData name="tourism">hotel</SimpleData>
	</SchemaData></ExtendedData>
      <Point><coordinates>7.4357314,10.5023849</coordinates></Point>
  </Placemark>
  <Placemark>
	<name>Prime Hospital</name>
	<ExtendedData><SchemaData schemaUrl="#SELECT">
		<SimpleData name="osm_id">1191103945</SimpleData>
		<SimpleData name="amenity">hospital</SimpleData>
	</SchemaData></ExtendedData>
      <Point><coordinates>7.4347873,10.5082502</coordinates></Point>
  </Placemark>
  <Placemark>
	<name>Prime Hospital</name>
	<ExtendedData><SchemaData schemaUrl="#SELECT">
		<SimpleData name="osm_id">1191103979</SimpleData>
		<SimpleData name="amenity">hospital</SimpleData>
	</SchemaData></ExtendedData>
      <Point><coordinates>7.435041,10.5082258</coordinates></Point>
  </Placemark>
  <Placemark>
	<name>De Nevilla</name>
	<ExtendedData><SchemaData schemaUrl="#SELECT">
		<SimpleData name="osm_id">1191104094</SimpleData>
		<SimpleData name="tourism">hotel</SimpleData>
	</SchemaData></ExtendedData>
      <Point><coordinates>7.4330278,10.5001485</coordinates></Point>
  </Placemark>
  <Placemark>
	<name>First Bank Plc</name>
	<ExtendedData><SchemaData schemaUrl="#SELECT">
		<SimpleData name="osm_id">1191113705</SimpleData>
		<SimpleData name="amenity">bank</SimpleData>
	</SchemaData></ExtendedData>
      <Point><coordinates>7.4187477,10.4783215</coordinates></Point>
  </Placemark>